{ "_id" : { "$oid" : "5336deb54514acde61d9ae12" }, "subtitle" : "(55) 21, 28, 32, 39, 50, N7", "name" : "Avenida Cataluña 51", "title" : "Avenida Cataluña 51", "lon" : -0.8668400072618749, "lines" : [ "21", "28", "32", "39", "50", "N7" ], "lat" : 41.66142619891659, "pole" : 55 }
{ "_id" : { "$oid" : "5336deb54514acde61d9ae13" }, "subtitle" : "(1072) 21, 32, 50", "name" : "Muel", "title" : "Muel", "lon" : -0.8691615653701175, "lines" : [ "21", "32", "50" ], "lat" : 41.65971441403222, "pole" : 1072 }
{ "_id" : { "$oid" : "5336deb54514acde61d9ae14" }, "subtitle" : "(3524) 21, 32", "name" : "Puente de hierro", "title" : "Puente de hierro", "lon" : -0.869769352588472, "lines" : [ "21", "32" ], "lat" : 41.65718383386497, "pole" : 3524 }
{ "_id" : { "$oid" : "5336deb54514acde61d9ae15" }, "subtitle" : "(790) 21, 22, 32", "name" : "San Vicente Paúl 47", "title" : "San Vicente Paúl 47", "lon" : -0.8737966399119966, "lines" : [ "21", "22", "32" ], "lat" : 41.65473856530453, "pole" : 790 }
{ "_id" : { "$oid" : "5336deb54514acde61d9ae16" }, "subtitle" : "(788) 21, 22, 28, 32", "name" : "San Vicente Paúl 27", "title" : "San Vicente Paúl 27", "lon" : -0.8750918453755517, "lines" : [ "21", "22", "28", "32" ], "lat" : 41.653234020459, "pole" : 788 }
{ "_id" : { "$oid" : "5336deb54514acde61d9ae17" }, "subtitle" : "(787) 21, 22, 28, 32", "name" : "San Vicente Paúl 3", "title" : "San Vicente Paúl 3", "lon" : -0.8768449520546, "lines" : [ "21", "22", "28", "32" ], "lat" : 41.65122269816167, "pole" : 787 }
{ "_id" : { "$oid" : "5336deb54514acde61d9ae18" }, "subtitle" : "(669) 21, 33, 38, N6", "name" : "Pamplona 4", "title" : "Pamplona 4", "lon" : -0.8863737307942957, "lines" : [ "21", "33", "38", "N6" ], "lat" : 41.6482380786608, "pole" : 669 }
{ "_id" : { "$oid" : "5336deb54514acde61d9ae19" }, "subtitle" : "(674) 21, 22, 23, 51", "name" : "María Agustín 12", "title" : "María Agustín 12", "lon" : -0.8892518871425318, "lines" : [ "21", "22", "23", "51" ], "lat" : 41.65078958045418, "pole" : 674 }
{ "_id" : { "$oid" : "5336deb54514acde61d9ae1a" }, "subtitle" : "(675) 21, 22, 23, 51", "name" : "María Agustín 26", "title" : "María Agustín 26", "lon" : -0.8912605130597389, "lines" : [ "21", "22", "23", "51" ], "lat" : 41.6521303471484, "pole" : 675 }
{ "_id" : { "$oid" : "5336deb54514acde61d9ae1b" }, "subtitle" : "(712) 21, 51", "name" : "Plaza del Portillo", "title" : "Plaza del Portillo", "lon" : -0.8920581911865821, "lines" : [ "21", "51" ], "lat" : 41.65554149455024, "pole" : 712 }
{ "_id" : { "$oid" : "5336deb54514acde61d9ae1c" }, "subtitle" : "(3036) 21, 32, 33, 36, 51, 52, N3", "name" : "Avenida Madrid/Aljafería", "title" : "Avenida Madrid/Aljafería", "lon" : -0.8949915846534963, "lines" : [ "21", "32", "33", "36", "51", "52", "N3" ], "lat" : 41.65594505080708, "pole" : 3036 }
{ "_id" : { "$oid" : "5336deb54514acde61d9ae1d" }, "subtitle" : "(154) 21, N3", "name" : "Avenida Madrid 36", "title" : "Avenida Madrid 36", "lon" : -0.9017751984720714, "lines" : [ "21", "N3" ], "lat" : 41.65421561650316, "pole" : 154 }
{ "_id" : { "$oid" : "5336deb54514acde61d9ae1e" }, "subtitle" : "(3037) 21, 24, 32, 33, N3", "name" : "Avenida Madrid/Paseo de Calanda", "title" : "Avenida Madrid/Paseo de Calanda", "lon" : -0.9035863238509255, "lines" : [ "21", "24", "32", "33", "N3" ], "lat" : 41.65375469463333, "pole" : 3037 }
{ "_id" : { "$oid" : "5336deb54514acde61d9ae1f" }, "subtitle" : "(158) 21", "name" : "Avenida Madrid 94", "title" : "Avenida Madrid 94", "lon" : -0.9062843157074538, "lines" : [ "21" ], "lat" : 41.65306969134214, "pole" : 158 }
{ "_id" : { "$oid" : "5336deb54514acde61d9ae20" }, "subtitle" : "(163) 21, 24, 32, 33, N3", "name" : "Avenida Madrid 134", "title" : "Avenida Madrid 134", "lon" : -0.9098914453157695, "lines" : [ "21", "24", "32", "33", "N3" ], "lat" : 41.65224222560376, "pole" : 163 }
{ "_id" : { "$oid" : "5336deb54514acde61d9ae21" }, "subtitle" : "(167) 21, 24, 33, 36, N3", "name" : "Avenida Madrid 158", "title" : "Avenida Madrid 158", "lon" : -0.9129518580785425, "lines" : [ "21", "24", "33", "36", "N3" ], "lat" : 41.65157592687829, "pole" : 167 }
{ "_id" : { "$oid" : "5336deb54514acde61d9ae22" }, "subtitle" : "(169) 21, 24, 33, 36, N3", "name" : "Avenida Madrid 170", "title" : "Avenida Madrid 170", "lon" : -0.9144296829141697, "lines" : [ "21", "24", "33", "36", "N3" ], "lat" : 41.65124638890902, "pole" : 169 }
{ "_id" : { "$oid" : "5336deb54514acde61d9ae23" }, "subtitle" : "(175) 21, 24, 36, N3", "name" : "Avenida Madrid 220", "title" : "Avenida Madrid 220", "lon" : -0.9170763783943606, "lines" : [ "21", "24", "36", "N3" ], "lat" : 41.65068915091275, "pole" : 175 }
{ "_id" : { "$oid" : "5336deb54514acde61d9ae24" }, "subtitle" : "(6) 21, 53", "name" : "Alfredo Nobel/Vía Hispanidad", "title" : "Alfredo Nobel/Vía Hispanidad", "lon" : -0.9200385143210229, "lines" : [ "21", "53" ], "lat" : 41.6517066755785, "pole" : 6 }
{ "_id" : { "$oid" : "5336deb54514acde61d9ae25" }, "subtitle" : "(4) 21, 53", "name" : "Alfredo Nobel/Monasterio", "title" : "Alfredo Nobel/Monasterio", "lon" : -0.9212063945235948, "lines" : [ "21", "53" ], "lat" : 41.6518653997484, "pole" : 4 }
{ "_id" : { "$oid" : "5336deb54514acde61d9ae26" }, "subtitle" : "(2) 21, 53", "name" : "Plaza Agustín Príncipe", "title" : "Plaza Agustín Príncipe", "lon" : -0.9236277989278875, "lines" : [ "21", "53" ], "lat" : 41.65316761792477, "pole" : 2 }
{ "_id" : { "$oid" : "5336deb54514acde61d9ae27" }, "subtitle" : "(625) 21, 53", "name" : "Pedro Porter 5", "title" : "Pedro Porter 5", "lon" : -0.9267486627156564, "lines" : [ "21", "53" ], "lat" : 41.65281908933267, "pole" : 625 }
{ "_id" : { "$oid" : "5336deb54514acde61d9ae28" }, "subtitle" : "(525) 21, 53", "name" : "Jerónimo Cáncer 24", "title" : "Jerónimo Cáncer 24", "lon" : -0.9288504096752719, "lines" : [ "21", "53" ], "lat" : 41.65299159902246, "pole" : 525 }
{ "_id" : { "$oid" : "5336deb54514acde61d9ae29" }, "subtitle" : "(765) 21, 53", "name" : "San Alberto Magno", "title" : "San Alberto Magno", "lon" : -0.9299479777194314, "lines" : [ "21", "53" ], "lat" : 41.65230894279083, "pole" : 765 }
{ "_id" : { "$oid" : "5336deb54514acde61d9ae2a" }, "subtitle" : "(1071) 21", "name" : "Plaza Mozart", "title" : "Plaza Mozart", "lon" : -0.8649364620493818, "lines" : [ "21" ], "lat" : 41.66268635543576, "pole" : 1071 }
{ "_id" : { "$oid" : "5336deb54514acde61d9ae2b" }, "subtitle" : "(334) 21, 38", "name" : "Coso 55/Teatro Principal", "title" : "Coso 55/Teatro Principal", "lon" : -0.879548418832845, "lines" : [ "21", "38" ], "lat" : 41.65184732815811, "pole" : 334 }
{ "_id" : { "$oid" : "5336deb54514acde61d9ae2c" }, "subtitle" : "(664) 21, 38", "name" : "Independencia 24", "title" : "Independencia 24", "lon" : -0.8830206467288038, "lines" : [ "21", "38" ], "lat" : 41.6502446842062, "pole" : 664 }
{ "_id" : { "$oid" : "5336deb54514acde61d9ae2d" }, "subtitle" : "(3532) 21, 53, N3", "name" : "Antonio Leyva/Escuelas", "title" : "Antonio Leyva/Escuelas", "lon" : -0.927126108048519, "lines" : [ "21", "53", "N3" ], "lat" : 41.65159158007949, "pole" : 3532 }
{ "_id" : { "$oid" : "5336deb54514acde61d9ae2e" }, "subtitle" : "(14) 21, 53, N3", "name" : "Antonio Leyva/Plaza del Sol", "title" : "Antonio Leyva/Plaza del Sol", "lon" : -0.9236244507156701, "lines" : [ "21", "53", "N3" ], "lat" : 41.65170332625031, "pole" : 14 }
{ "_id" : { "$oid" : "5336deb54514acde61d9ae2f" }, "subtitle" : "(3531) 21, 53, N3", "name" : "Alfred Nobel 5", "title" : "Alfred Nobel 5", "lon" : -0.9212071011863646, "lines" : [ "21", "53", "N3" ], "lat" : 41.65174764558081, "pole" : 3531 }
{ "_id" : { "$oid" : "5336deb54514acde61d9ae30" }, "subtitle" : "(5) 21, 53, N3", "name" : "Alfredo Nobel/Vía Hispanidad", "title" : "Alfredo Nobel/Vía Hispanidad", "lon" : -0.9196790693872493, "lines" : [ "21", "53", "N3" ], "lat" : 41.65151069055678, "pole" : 5 }
{ "_id" : { "$oid" : "5336deb54514acde61d9ae31" }, "subtitle" : "(180) 21, 24, N3", "name" : "Avenida Madrid 285", "title" : "Avenida Madrid 285", "lon" : -0.9168461140346909, "lines" : [ "21", "24", "N3" ], "lat" : 41.65060356187733, "pole" : 180 }
{ "_id" : { "$oid" : "5336deb54514acde61d9ae32" }, "subtitle" : "(176) 21, 24, 33, N3", "name" : "Avenida Madrid 241", "title" : "Avenida Madrid 241", "lon" : -0.912103468741199, "lines" : [ "21", "24", "33", "N3" ], "lat" : 41.65162669876694, "pole" : 176 }
{ "_id" : { "$oid" : "5336deb54514acde61d9ae33" }, "subtitle" : "(173) 21, 24, 32, 33, N3", "name" : "Avenida Madrid 215", "title" : "Avenida Madrid 215", "lon" : -0.9095853787528544, "lines" : [ "21", "24", "32", "33", "N3" ], "lat" : 41.65219683869689, "pole" : 173 }
{ "_id" : { "$oid" : "5336deb54514acde61d9ae34" }, "subtitle" : "(171) 21, 24, 32, 33, N3", "name" : "Avenida Madrid 183", "title" : "Avenida Madrid 183", "lon" : -0.9075089839678575, "lines" : [ "21", "24", "32", "33", "N3" ], "lat" : 41.6526515844052, "pole" : 171 }
{ "_id" : { "$oid" : "5336deb54514acde61d9ae35" }, "subtitle" : "(165) 21, 32, 33, N3", "name" : "Avenida Madrid 139", "title" : "Avenida Madrid 139", "lon" : -0.9036034745308014, "lines" : [ "21", "32", "33", "N3" ], "lat" : 41.6536094732629, "pole" : 165 }
{ "_id" : { "$oid" : "5336deb54514acde61d9ae36" }, "subtitle" : "(162) 21", "name" : "Avenida Madrid 119", "title" : "Avenida Madrid 119", "lon" : -0.9020816882371037, "lines" : [ "21" ], "lat" : 41.65401652258944, "pole" : 162 }
{ "_id" : { "$oid" : "5336deb54514acde61d9ae37" }, "subtitle" : "(3071) 21, 31, 52, N3", "name" : "Avenida Madrid/Aljafería", "title" : "Avenida Madrid/Aljafería", "lon" : -0.8956379413339265, "lines" : [ "21", "31", "52", "N3" ], "lat" : 41.65561776570328, "pole" : 3071 }
{ "_id" : { "$oid" : "5336deb54514acde61d9ae38" }, "subtitle" : "(679) 21, 23, 31, 51", "name" : "María Agustín 67", "title" : "María Agustín 67", "lon" : -0.8936742037850656, "lines" : [ "21", "23", "31", "51" ], "lat" : 41.65495240232694, "pole" : 679 }
{ "_id" : { "$oid" : "5336deb54514acde61d9ae39" }, "subtitle" : "(676) 21, 22, 23, 51", "name" : "María Agustín 33", "title" : "María Agustín 33", "lon" : -0.8909658049223919, "lines" : [ "21", "22", "23", "51" ], "lat" : 41.65138460695632, "pole" : 676 }
{ "_id" : { "$oid" : "5336deb54514acde61d9ae3a" }, "subtitle" : "(673) 21, 51", "name" : "María Agustín 9 /Puerta del Carmen", "title" : "María Agustín 9 /Puerta del Carmen", "lon" : -0.8883810107296576, "lines" : [ "21", "51" ], "lat" : 41.65003645440616, "pole" : 673 }
{ "_id" : { "$oid" : "5336deb54514acde61d9ae3b" }, "subtitle" : "(338) 21, 22, 32, 35, 39, N1", "name" : "Coso 126", "title" : "Coso 126", "lon" : -0.8754404975010989, "lines" : [ "21", "22", "32", "35", "39", "N1" ], "lat" : 41.65091120671998, "pole" : 338 }
{ "_id" : { "$oid" : "5336deb54514acde61d9ae3c" }, "subtitle" : "(340) 21, 22, 28, 29, 32, 35, 39, N1", "name" : "Coso 188", "title" : "Coso 188", "lon" : -0.8721230147183407, "lines" : [ "21", "22", "28", "29", "32", "35", "39", "N1" ], "lat" : 41.65275487582971, "pole" : 340 }
{ "_id" : { "$oid" : "5336deb54514acde61d9ae3d" }, "subtitle" : "(3525) 21, 28, 32, 35, 39, N1", "name" : "Avenida Puente del Pilar", "title" : "Avenida Puente del Pilar", "lon" : -0.8694616823873634, "lines" : [ "21", "28", "32", "35", "39", "N1" ], "lat" : 41.65718159730122, "pole" : 3525 }
{ "_id" : { "$oid" : "5336deb54514acde61d9ae3e" }, "subtitle" : "(203) 21, 28, 32, 35, 39, 50, N1", "name" : "Avenida Puente del Pilar/Colegio", "title" : "Avenida Puente del Pilar/Colegio", "lon" : -0.8679744251536078, "lines" : [ "21", "28", "32", "35", "39", "50", "N1" ], "lat" : 41.65954919047617, "pole" : 203 }
{ "_id" : { "$oid" : "5336deb54514acde61d9ae3f" }, "subtitle" : "(3040) 22, 24", "name" : "Tomás Bretón/Avenida Valencia", "title" : "Tomás Bretón/Avenida Valencia", "lon" : -0.8979445281352029, "lines" : [ "22", "24" ], "lat" : 41.64574510676157, "pole" : 3040 }
{ "_id" : { "$oid" : "5336deb54514acde61d9ae40" }, "subtitle" : "(479) 22, 24", "name" : "García Sánchez 26", "title" : "García Sánchez 26", "lon" : -0.8994511270953528, "lines" : [ "22", "24" ], "lat" : 41.64758648259574, "pole" : 479 }
{ "_id" : { "$oid" : "5336deb54514acde61d9ae41" }, "subtitle" : "(434) 22, N6", "name" : "Duquesa Villahermosa 3", "title" : "Duquesa Villahermosa 3", "lon" : -0.8995000028967097, "lines" : [ "22", "N6" ], "lat" : 41.64906712503119, "pole" : 434 }
{ "_id" : { "$oid" : "5336deb54514acde61d9ae42" }, "subtitle" : "(794) 22, N6", "name" : "Santander 27", "title" : "Santander 27", "lon" : -0.8973294205661138, "lines" : [ "22", "N6" ], "lat" : 41.64911339824025, "pole" : 794 }
{ "_id" : { "$oid" : "5336deb54514acde61d9ae43" }, "subtitle" : "(50) 22, 31", "name" : "Anselmo Clavé 45", "title" : "Anselmo Clavé 45", "lon" : -0.8936795505665316, "lines" : [ "22", "31" ], "lat" : 41.6494655126369, "pole" : 50 }
{ "_id" : { "$oid" : "5336deb54514acde61d9ae44" }, "subtitle" : "(49) 22, 31", "name" : "Anselmo Clavé 21", "title" : "Anselmo Clavé 21", "lon" : -0.8933889035464327, "lines" : [ "22", "31" ], "lat" : 41.65175503319919, "pole" : 49 }
{ "_id" : { "$oid" : "5336deb54514acde61d9ae45" }, "subtitle" : "(3025) 22", "name" : "Alonso V 30", "title" : "Alonso V 30", "lon" : -0.8705708043028366, "lines" : [ "22" ], "lat" : 41.65181397112237, "pole" : 3025 }
{ "_id" : { "$oid" : "5336deb54514acde61d9ae46" }, "subtitle" : "(21) 22", "name" : "Asalto 71", "title" : "Asalto 71", "lon" : -0.8704284523285831, "lines" : [ "22" ], "lat" : 41.64998165339259, "pole" : 21 }
{ "_id" : { "$oid" : "5336deb54514acde61d9ae47" }, "subtitle" : "(3026) 22, 30, N5", "name" : "Jorge Cocci", "title" : "Jorge Cocci", "lon" : -0.8707624181938465, "lines" : [ "22", "30", "N5" ], "lat" : 41.64879338883345, "pole" : 3026 }
{ "_id" : { "$oid" : "5336deb54514acde61d9ae48" }, "subtitle" : "(3015) 22, 24, 30, N5", "name" : "Compromiso de Caspe 26", "title" : "Compromiso de Caspe 26", "lon" : -0.8681369999964644, "lines" : [ "22", "24", "30", "N5" ], "lat" : 41.64580554750383, "pole" : 3015 }
{ "_id" : { "$oid" : "5336deb54514acde61d9ae49" }, "subtitle" : "(313) 22, 24, 30, N5", "name" : "Compromiso de Caspe 48", "title" : "Compromiso de Caspe 48", "lon" : -0.8647872897357416, "lines" : [ "22", "24", "30", "N5" ], "lat" : 41.64547423988836, "pole" : 313 }
{ "_id" : { "$oid" : "5336deb54514acde61d9ae4a" }, "subtitle" : "(314) 22", "name" : "Compromiso de Caspe 72", "title" : "Compromiso de Caspe 72", "lon" : -0.8617617903947353, "lines" : [ "22" ], "lat" : 41.64515393414453, "pole" : 314 }
{ "_id" : { "$oid" : "5336deb54514acde61d9ae4b" }, "subtitle" : "(3001) 22, 23, 35", "name" : "Pamplona 15", "title" : "Pamplona 15", "lon" : -0.8873121958468285, "lines" : [ "22", "23", "35" ], "lat" : 41.64902523385171, "pole" : 3001 }
{ "_id" : { "$oid" : "5336deb54514acde61d9ae4c" }, "subtitle" : "(697) 23, 33, 34, N5", "name" : "Glorieta Sasera", "title" : "Glorieta Sasera", "lon" : -0.8854463817723119, "lines" : [ "23", "33", "34", "N5" ], "lat" : 41.64557226208531, "pole" : 697 }
{ "_id" : { "$oid" : "5336deb54514acde61d9ae4d" }, "subtitle" : "(678) 23", "name" : "María Agustín 62", "title" : "María Agustín 62", "lon" : -0.8935243539041426, "lines" : [ "23" ], "lat" : 41.65562976914396, "pole" : 678 }
{ "_id" : { "$oid" : "5336deb54514acde61d9ae4e" }, "subtitle" : "(3075) 23, 42, N2", "name" : "Plaza de Europa", "title" : "Plaza de Europa", "lon" : -0.8916650393597774, "lines" : [ "23", "42", "N2" ], "lat" : 41.65902300303608, "pole" : 3075 }
{ "_id" : { "$oid" : "5336deb54514acde61d9ae4f" }, "subtitle" : "(812) 23, 42, N2", "name" : "Valle de Broto/Ranillas", "title" : "Valle de Broto/Ranillas", "lon" : -0.8883363786134986, "lines" : [ "23", "42", "N2" ], "lat" : 41.66304795118228, "pole" : 812 }
{ "_id" : { "$oid" : "5336deb54514acde61d9ae50" }, "subtitle" : "(493) 23, 42, N2", "name" : "Valle de Broto/Gómez Avellaneda", "title" : "Valle de Broto/Gómez Avellaneda", "lon" : -0.8861305315313728, "lines" : [ "23", "42", "N2" ], "lat" : 41.66492965491594, "pole" : 493 }
{ "_id" : { "$oid" : "5336deb54514acde61d9ae51" }, "subtitle" : "(3060) 23, 50, CI2, N2", "name" : "María Zambrano/Jorge Guillén", "title" : "María Zambrano/Jorge Guillén", "lon" : -0.8864805759253912, "lines" : [ "23", "50", "CI2", "N2" ], "lat" : 41.66727621296951, "pole" : 3060 }
{ "_id" : { "$oid" : "5336deb54514acde61d9ae52" }, "subtitle" : "(478) 23, 40", "name" : "García Lorca13", "title" : "García Lorca13", "lon" : -0.8784356592884798, "lines" : [ "23", "40" ], "lat" : 41.63473416886796, "pole" : 478 }
{ "_id" : { "$oid" : "5336deb54514acde61d9ae53" }, "subtitle" : "(230) 23, 39, 40", "name" : "San José 159", "title" : "San José 159", "lon" : -0.8780409541417072, "lines" : [ "23", "39", "40" ], "lat" : 41.63655522017945, "pole" : 230 }
{ "_id" : { "$oid" : "5336deb54514acde61d9ae54" }, "subtitle" : "(866) 23, 31, C4, N5", "name" : "Zafiro", "title" : "Zafiro", "lon" : -0.8758484796471744, "lines" : [ "23", "31", "C4", "N5" ], "lat" : 41.62304411197871, "pole" : 866 }
{ "_id" : { "$oid" : "5336deb54514acde61d9ae55" }, "subtitle" : "(425) 23, 31, C4, N5", "name" : "Cuarta Avenida 23", "title" : "Cuarta Avenida 23", "lon" : -0.8764080152094016, "lines" : [ "23", "31", "C4", "N5" ], "lat" : 41.62488786719984, "pole" : 425 }
{ "_id" : { "$oid" : "5336deb54514acde61d9ae56" }, "subtitle" : "(609) 23, 31, C4, N5", "name" : "Oviedo 177", "title" : "Oviedo 177", "lon" : -0.8786271404063192, "lines" : [ "23", "31", "C4", "N5" ], "lat" : 41.62591773128567, "pole" : 609 }
{ "_id" : { "$oid" : "5336deb54514acde61d9ae57" }, "subtitle" : "(610) 23, 31, C4, N5", "name" : "Pablo Parellada 27", "title" : "Pablo Parellada 27", "lon" : -0.8805571255147926, "lines" : [ "23", "31", "C4", "N5" ], "lat" : 41.62686496998244, "pole" : 610 }
{ "_id" : { "$oid" : "5336deb54514acde61d9ae58" }, "subtitle" : "(757) 23", "name" : "Villa de Pau 14", "title" : "Villa de Pau 14", "lon" : -0.8804124501090934, "lines" : [ "23" ], "lat" : 41.6279545792467, "pole" : 757 }
{ "_id" : { "$oid" : "5336deb54514acde61d9ae59" }, "subtitle" : "(756) 23", "name" : "Villa de Pau 2", "title" : "Villa de Pau 2", "lon" : -0.8799222850535353, "lines" : [ "23" ], "lat" : 41.6293055739978, "pole" : 756 }
{ "_id" : { "$oid" : "5336deb54514acde61d9ae5a" }, "subtitle" : "(759) 23", "name" : "Villa de Pau/Puente", "title" : "Villa de Pau/Puente", "lon" : -0.8785078167280598, "lines" : [ "23" ], "lat" : 41.62939526187554, "pole" : 759 }
{ "_id" : { "$oid" : "5336deb54514acde61d9ae5b" }, "subtitle" : "(644) 23", "name" : "Paseo del Canal 47", "title" : "Paseo del Canal 47", "lon" : -0.8802529241533487, "lines" : [ "23" ], "lat" : 41.6303031576193, "pole" : 644 }
{ "_id" : { "$oid" : "5336deb54514acde61d9ae5c" }, "subtitle" : "(275) 23", "name" : "Joaquín de Traggia 4", "title" : "Joaquín de Traggia 4", "lon" : -0.8790058429578432, "lines" : [ "23" ], "lat" : 41.6325261726882, "pole" : 275 }
{ "_id" : { "$oid" : "5336deb54514acde61d9ae5d" }, "subtitle" : "(256) 23, 24", "name" : "Tenor Fleta 89", "title" : "Tenor Fleta 89", "lon" : -0.87739746348526, "lines" : [ "23", "24" ], "lat" : 41.63792058322078, "pole" : 256 }
{ "_id" : { "$oid" : "5336deb54514acde61d9ae5e" }, "subtitle" : "(253) 23, 24", "name" : "Tenor Fleta 57", "title" : "Tenor Fleta 57", "lon" : -0.8795869719060065, "lines" : [ "23", "24" ], "lat" : 41.63902810169669, "pole" : 253 }
{ "_id" : { "$oid" : "5336deb54514acde61d9ae5f" }, "subtitle" : "(251) 23, 24", "name" : "Tenor Fleta 33", "title" : "Tenor Fleta 33", "lon" : -0.8823024540814278, "lines" : [ "23", "24" ], "lat" : 41.64039407766719, "pole" : 251 }
{ "_id" : { "$oid" : "5336deb54514acde61d9ae60" }, "subtitle" : "(250) 23", "name" : "Tenor Fleta 3", "title" : "Tenor Fleta 3", "lon" : -0.8856364863512913, "lines" : [ "23" ], "lat" : 41.64211969915349, "pole" : 250 }
{ "_id" : { "$oid" : "5336deb54514acde61d9ae61" }, "subtitle" : "(690) 23, 33, 34, N5", "name" : "Sagasta 11", "title" : "Sagasta 11", "lon" : -0.8857671913397006, "lines" : [ "23", "33", "34", "N5" ], "lat" : 41.64350123883967, "pole" : 690 }
{ "_id" : { "$oid" : "5336deb54514acde61d9ae62" }, "subtitle" : "(7) 23, 31, N5", "name" : "León Moyano", "title" : "León Moyano", "lon" : -0.8735896004960516, "lines" : [ "23", "31", "N5" ], "lat" : 41.62399295258363, "pole" : 7 }
{ "_id" : { "$oid" : "5336deb54514acde61d9ae63" }, "subtitle" : "(743) 23, 25, N7", "name" : "Pamplona 12", "title" : "Pamplona 12", "lon" : -0.8868792962844211, "lines" : [ "23", "25", "N7" ], "lat" : 41.64899465070969, "pole" : 743 }
{ "_id" : { "$oid" : "5336deb54514acde61d9ae64" }, "subtitle" : "(1225) 23", "name" : "Clara Campoamor", "title" : "Clara Campoamor", "lon" : -0.8891950360902705, "lines" : [ "23" ], "lat" : 41.66909471676782, "pole" : 1225 }
{ "_id" : { "$oid" : "5336deb54514acde61d9ae65" }, "subtitle" : "(817) 23, 42", "name" : "Valle de Broto", "title" : "Valle de Broto", "lon" : -0.8873560327528406, "lines" : [ "23", "42" ], "lat" : 41.66452732930132, "pole" : 817 }
{ "_id" : { "$oid" : "5336deb54514acde61d9ae66" }, "subtitle" : "(813) 23, 42", "name" : "Valle de Broto/Ranillas", "title" : "Valle de Broto/Ranillas", "lon" : -0.888592458245786, "lines" : [ "23", "42" ], "lat" : 41.66332397370178, "pole" : 813 }
{ "_id" : { "$oid" : "5336deb54514acde61d9ae67" }, "subtitle" : "(3035) 23, 36", "name" : "Plaza de Europa", "title" : "Plaza de Europa", "lon" : -0.8929564016827393, "lines" : [ "23", "36" ], "lat" : 41.65934139720709, "pole" : 3035 }
{ "_id" : { "$oid" : "5336deb54514acde61d9ae68" }, "subtitle" : "(232) 23, 39, 40, N5", "name" : "San José 200", "title" : "San José 200", "lon" : -0.8794445282006766, "lines" : [ "23", "39", "40", "N5" ], "lat" : 41.63563281768443, "pole" : 232 }
{ "_id" : { "$oid" : "5336deb54514acde61d9ae69" }, "subtitle" : "(758) 23, 42, N5", "name" : "Villa de Pau 19", "title" : "Villa de Pau 19", "lon" : -0.8788749449467953, "lines" : [ "23", "42", "N5" ], "lat" : 41.62772536398118, "pole" : 758 }
{ "_id" : { "$oid" : "5336deb54514acde61d9ae6a" }, "subtitle" : "(426) 23, C4, N5", "name" : "Cuarta Avenida 62", "title" : "Cuarta Avenida 62", "lon" : -0.8764159634137568, "lines" : [ "23", "C4", "N5" ], "lat" : 41.62462949061209, "pole" : 426 }
{ "_id" : { "$oid" : "5336deb54514acde61d9ae6b" }, "subtitle" : "(691) 23, 33, 34", "name" : "Sagasta 14", "title" : "Sagasta 14", "lon" : -0.8858148533311689, "lines" : [ "23", "33", "34" ], "lat" : 41.64563188801813, "pole" : 691 }
{ "_id" : { "$oid" : "5336deb54514acde61d9ae6c" }, "subtitle" : "(249) 23", "name" : "Tenor Fleta 2", "title" : "Tenor Fleta 2", "lon" : -0.8854352063284985, "lines" : [ "23" ], "lat" : 41.64180500458637, "pole" : 249 }
{ "_id" : { "$oid" : "5336deb54514acde61d9ae6d" }, "subtitle" : "(252) 23, 24", "name" : "Tenor Fleta 34", "title" : "Tenor Fleta 34", "lon" : -0.8824290070492394, "lines" : [ "23", "24" ], "lat" : 41.64027019399718, "pole" : 252 }
{ "_id" : { "$oid" : "5336deb54514acde61d9ae6e" }, "subtitle" : "(254) 23, 24", "name" : "Tenor Fleta 62", "title" : "Tenor Fleta 62", "lon" : -0.8793484010325429, "lines" : [ "23", "24" ], "lat" : 41.63868284588522, "pole" : 254 }
{ "_id" : { "$oid" : "5336deb54514acde61d9ae6f" }, "subtitle" : "(255) 23, 24", "name" : "Tenor Fleta 82", "title" : "Tenor Fleta 82", "lon" : -0.8777358260988177, "lines" : [ "23", "24" ], "lat" : 41.63785204599069, "pole" : 255 }
{ "_id" : { "$oid" : "5336deb54514acde61d9ae70" }, "subtitle" : "(234) 23, N5", "name" : "San José 224", "title" : "San José 224", "lon" : -0.8816826867396867, "lines" : [ "23", "N5" ], "lat" : 41.63400570097712, "pole" : 234 }
{ "_id" : { "$oid" : "5336deb54514acde61d9ae71" }, "subtitle" : "(700) 23, N5", "name" : "Tierno Galván/Honorio García Condoy", "title" : "Tierno Galván/Honorio García Condoy", "lon" : -0.8820920560712935, "lines" : [ "23", "N5" ], "lat" : 41.6326971332989, "pole" : 700 }
{ "_id" : { "$oid" : "5336deb54514acde61d9ae72" }, "subtitle" : "(699) 23, N5", "name" : "Tierno Galván 30", "title" : "Tierno Galván 30", "lon" : -0.8812011363122096, "lines" : [ "23", "N5" ], "lat" : 41.63054327142205, "pole" : 699 }
{ "_id" : { "$oid" : "5336deb54514acde61d9ae73" }, "subtitle" : "(886) 23, N5", "name" : "Villa de Pau/Parque", "title" : "Villa de Pau/Parque", "lon" : -0.8782277667540894, "lines" : [ "23", "N5" ], "lat" : 41.62918877930485, "pole" : 886 }
{ "_id" : { "$oid" : "5336deb54514acde61d9ae74" }, "subtitle" : "(448) 23, N5", "name" : "Faustino Casamayor 20", "title" : "Faustino Casamayor 20", "lon" : -0.8792061400107271, "lines" : [ "23", "N5" ], "lat" : 41.62609672477861, "pole" : 448 }
{ "_id" : { "$oid" : "5336deb54514acde61d9ae75" }, "lat" : 41.62517845839894, "lon" : -0.878168662316243, "pole" : 767, "name" : "(767) S. EUGENIO 35 Líneas: 23,N5", "title" : "(767) S. EUGENIO 35 Líneas: 23,N5" }
{ "_id" : { "$oid" : "5336deb54514acde61d9ae76" }, "subtitle" : "(3063) 23, CI1, 50", "name" : "Gómez Avellaneda/Rosalía de Castro", "title" : "Gómez Avellaneda/Rosalía de Castro", "lon" : -0.8880246702117423, "lines" : [ "23", "CI1", "50" ], "lat" : 41.66706074466883, "pole" : 3063 }
{ "_id" : { "$oid" : "5336deb54514acde61d9ae77" }, "subtitle" : "(221) 24, 39, 40, N5", "name" : "San José 10", "title" : "San José 10", "lon" : -0.8724850243487445, "lines" : [ "24", "39", "40", "N5" ], "lat" : 41.64536806701953, "pole" : 221 }
{ "_id" : { "$oid" : "5336deb54514acde61d9ae78" }, "subtitle" : "(222) 24, 39, 40, N5", "name" : "San José 38", "title" : "San José 38", "lon" : -0.8729211295887694, "lines" : [ "24", "39", "40", "N5" ], "lat" : 41.64345589942869, "pole" : 222 }
{ "_id" : { "$oid" : "5336deb54514acde61d9ae79" }, "subtitle" : "(224) 24, 39, 40, N5", "name" : "San José 66", "title" : "San José 66", "lon" : -0.8735489091358204, "lines" : [ "24", "39", "40", "N5" ], "lat" : 41.64086588437415, "pole" : 224 }
{ "_id" : { "$oid" : "5336deb54514acde61d9ae7a" }, "subtitle" : "(226) 24, 39, 40, N5", "name" : "San José 70", "title" : "San José 70", "lon" : -0.8745510941573672, "lines" : [ "24", "39", "40", "N5" ], "lat" : 41.63949855344316, "pole" : 226 }
{ "_id" : { "$oid" : "5336deb54514acde61d9ae7b" }, "subtitle" : "(293) CI1, 24", "name" : "Camino de Las Torres 116", "title" : "Camino de Las Torres 116", "lon" : -0.8857154509690056, "lines" : [ "CI1", "24" ], "lat" : 41.64023902816683, "pole" : 293 }
{ "_id" : { "$oid" : "5336deb54514acde61d9ae7c" }, "subtitle" : "(470) 24", "name" : "Fray Lulián Urbano 15", "title" : "Fray Lulián Urbano 15", "lon" : -0.8587291156516503, "lines" : [ "24" ], "lat" : 41.64799541012474, "pole" : 470 }
{ "_id" : { "$oid" : "5336deb54514acde61d9ae7d" }, "subtitle" : "(469) 24", "name" : "Fray Lulián Urbano 3", "title" : "Fray Lulián Urbano 3", "lon" : -0.8590628493815615, "lines" : [ "24" ], "lat" : 41.64595421416884, "pole" : 469 }
{ "_id" : { "$oid" : "5336deb54514acde61d9ae7e" }, "subtitle" : "(312) 24, N5", "name" : "Compromiso de Caspe 27", "title" : "Compromiso de Caspe 27", "lon" : -0.8693906830182179, "lines" : [ "24", "N5" ], "lat" : 41.64605998514463, "pole" : 312 }
{ "_id" : { "$oid" : "5336deb54514acde61d9ae7f" }, "subtitle" : "(541) 24", "name" : "Juan Pablo Bonet 20", "title" : "Juan Pablo Bonet 20", "lon" : -0.8887007796569392, "lines" : [ "24" ], "lat" : 41.64064397809014, "pole" : 541 }
{ "_id" : { "$oid" : "5336deb54514acde61d9ae80" }, "subtitle" : "(574) 24", "name" : "Mariano Barbasán 13", "title" : "Mariano Barbasán 13", "lon" : -0.8911359464106673, "lines" : [ "24" ], "lat" : 41.6420390296882, "pole" : 574 }
{ "_id" : { "$oid" : "5336deb54514acde61d9ae81" }, "subtitle" : "(803) 24", "name" : "Tomás Bretón 10", "title" : "Tomás Bretón 10", "lon" : -0.8933303774135034, "lines" : [ "24" ], "lat" : 41.64342170563911, "pole" : 803 }
{ "_id" : { "$oid" : "5336deb54514acde61d9ae82" }, "subtitle" : "(809) 24", "name" : "Unceta 101", "title" : "Unceta 101", "lon" : -0.9005014513924021, "lines" : [ "24" ], "lat" : 41.64924546480012, "pole" : 809 }
{ "_id" : { "$oid" : "5336deb54514acde61d9ae83" }, "subtitle" : "(808) 24", "name" : "Unceta 33", "title" : "Unceta 33", "lon" : -0.9018627657894907, "lines" : [ "24" ], "lat" : 41.65225453814236, "pole" : 808 }
{ "_id" : { "$oid" : "5336deb54514acde61d9ae84" }, "subtitle" : "(160) 24, 32, 33, N3", "name" : "Avenida Madrid 108", "title" : "Avenida Madrid 108", "lon" : -0.9078380392726295, "lines" : [ "24", "32", "33", "N3" ], "lat" : 41.65270124295468, "pole" : 160 }
{ "_id" : { "$oid" : "5336deb54514acde61d9ae85" }, "subtitle" : "(362) 24, 36, N3", "name" : "Carretera Madrid 44", "title" : "Carretera Madrid 44", "lon" : -0.920656592032836, "lines" : [ "24", "36", "N3" ], "lat" : 41.64877392845013, "pole" : 362 }
{ "_id" : { "$oid" : "5336deb54514acde61d9ae86" }, "subtitle" : "(363) 24, 36, N3", "name" : "Carretera Madrid 50", "title" : "Carretera Madrid 50", "lon" : -0.9224549208526274, "lines" : [ "24", "36", "N3" ], "lat" : 41.64757729202874, "pole" : 363 }
{ "_id" : { "$oid" : "5336deb54514acde61d9ae87" }, "subtitle" : "(747) 24, 36, N3", "name" : "Francisca Millán Serrano 20", "title" : "Francisca Millán Serrano 20", "lon" : -0.9285625530328837, "lines" : [ "24", "36", "N3" ], "lat" : 41.64262888063747, "pole" : 747 }
{ "_id" : { "$oid" : "5336deb54514acde61d9ae88" }, "subtitle" : "(748) 24, 36, N3", "name" : "Francisca Millán Serrano 31", "title" : "Francisca Millán Serrano 31", "lon" : -0.9307091367625708, "lines" : [ "24", "36", "N3" ], "lat" : 41.6411364313711, "pole" : 748 }
{ "_id" : { "$oid" : "5336deb54514acde61d9ae89" }, "subtitle" : "(449) 24, 36, N3", "name" : "Federico Ozanám 33", "title" : "Federico Ozanám 33", "lon" : -0.9321150357060921, "lines" : [ "24", "36", "N3" ], "lat" : 41.64024275079825, "pole" : 449 }
{ "_id" : { "$oid" : "5336deb54514acde61d9ae8a" }, "subtitle" : "(3537) 24, 36", "name" : "Aldebarán/Alcampo", "title" : "Aldebarán/Alcampo", "lon" : -0.9347136267615164, "lines" : [ "24", "36" ], "lat" : 41.64161694022714, "pole" : 3537 }
{ "_id" : { "$oid" : "5336deb54514acde61d9ae8b" }, "subtitle" : "(627) 24, 36", "name" : "Pléyades", "title" : "Pléyades", "lon" : -0.9352413647747789, "lines" : [ "24", "36" ], "lat" : 41.63964180041253, "pole" : 627 }
{ "_id" : { "$oid" : "5336deb54514acde61d9ae8c" }, "subtitle" : "(806) 24", "name" : "Tulipán 67", "title" : "Tulipán 67", "lon" : -0.9330998514429125, "lines" : [ "24" ], "lat" : 41.63818747575874, "pole" : 806 }
{ "_id" : { "$oid" : "5336deb54514acde61d9ae8d" }, "subtitle" : "(651) 24", "name" : "Echegaray y Caballero/Salvador Minguijón", "title" : "Echegaray y Caballero/Salvador Minguijón", "lon" : -0.8601000558362337, "lines" : [ "24" ], "lat" : 41.65097991995147, "pole" : 651 }
{ "_id" : { "$oid" : "5336deb54514acde61d9ae8e" }, "subtitle" : "(259) 24, 36, N3", "name" : "Dalia 2", "title" : "Dalia 2", "lon" : -0.9264418173198548, "lines" : [ "24", "36", "N3" ], "lat" : 41.6435253927856, "pole" : 259 }
{ "_id" : { "$oid" : "5336deb54514acde61d9ae8f" }, "subtitle" : "(3029) 24, 39, 40, N6", "name" : "San José 69", "title" : "San José 69", "lon" : -0.8731581435984133, "lines" : [ "24", "39", "40", "N6" ], "lat" : 41.64167020022335, "pole" : 3029 }
{ "_id" : { "$oid" : "5336deb54514acde61d9ae90" }, "subtitle" : "(223) 24, 39, 40, N6", "name" : "San José 45", "title" : "San José 45", "lon" : -0.8728395944405224, "lines" : [ "24", "39", "40", "N6" ], "lat" : 41.64304431045917, "pole" : 223 }
{ "_id" : { "$oid" : "5336deb54514acde61d9ae91" }, "subtitle" : "(3030) 24, 39, 40, N6", "name" : "San José 7", "title" : "San José 7", "lon" : -0.8723035147547777, "lines" : [ "24", "39", "40", "N6" ], "lat" : 41.64546633439728, "pole" : 3030 }
{ "_id" : { "$oid" : "5336deb54514acde61d9ae92" }, "subtitle" : "(760) 24, 30, 44, N5", "name" : "Salvador Minguijón 10", "title" : "Salvador Minguijón 10", "lon" : -0.8618860076353818, "lines" : [ "24", "30", "44", "N5" ], "lat" : 41.64559779887026, "pole" : 760 }
{ "_id" : { "$oid" : "5336deb54514acde61d9ae93" }, "subtitle" : "(3020) 24, 30, 44, N5", "name" : "Salvador Minguijón/Amistad", "title" : "Salvador Minguijón/Amistad", "lon" : -0.8615852941561742, "lines" : [ "24", "30", "44", "N5" ], "lat" : 41.64711584577928, "pole" : 3020 }
{ "_id" : { "$oid" : "5336deb54514acde61d9ae94" }, "subtitle" : "(763) 24, 44, N5", "name" : "Salvador Minguijón 40", "title" : "Salvador Minguijón 40", "lon" : -0.861244229237178, "lines" : [ "24", "44", "N5" ], "lat" : 41.64888935829249, "pole" : 763 }
{ "_id" : { "$oid" : "5336deb54514acde61d9ae95" }, "subtitle" : "(805) 24, 36", "name" : "Tulipán 27", "title" : "Tulipán 27", "lon" : -0.9311864577619536, "lines" : [ "24", "36" ], "lat" : 41.63795204171341, "pole" : 805 }
{ "_id" : { "$oid" : "5336deb54514acde61d9ae96" }, "subtitle" : "(3539) 24, 36", "name" : "Vía Láctea/Torre pajaritos", "title" : "Vía Láctea/Torre pajaritos", "lon" : -0.9280981449156319, "lines" : [ "24", "36" ], "lat" : 41.63781889396574, "pole" : 3539 }
{ "_id" : { "$oid" : "5336deb54514acde61d9ae97" }, "subtitle" : "(8) 24, 36", "name" : "Miguel Ángel Blanco 53", "title" : "Miguel Ángel Blanco 53", "lon" : -0.9274476703347733, "lines" : [ "24", "36" ], "lat" : 41.63941301869379, "pole" : 8 }
{ "_id" : { "$oid" : "5336deb54514acde61d9ae98" }, "subtitle" : "(260) 24, 36", "name" : "Avenida Valdefierro 15", "title" : "Avenida Valdefierro 15", "lon" : -0.9289829432630378, "lines" : [ "24", "36" ], "lat" : 41.64054379992106, "pole" : 260 }
{ "_id" : { "$oid" : "5336deb54514acde61d9ae99" }, "subtitle" : "(261) 24, 36", "name" : "Avenida Valdefierro 27", "title" : "Avenida Valdefierro 27", "lon" : -0.9281455502384309, "lines" : [ "24", "36" ], "lat" : 41.64196188967247, "pole" : 261 }
{ "_id" : { "$oid" : "5336deb54514acde61d9ae9a" }, "subtitle" : "(258) 24, 36", "name" : "Avenida Valdefierro 1", "title" : "Avenida Valdefierro 1", "lon" : -0.9265317872135237, "lines" : [ "24", "36" ], "lat" : 41.64449530849961, "pole" : 258 }
{ "_id" : { "$oid" : "5336deb54514acde61d9ae9b" }, "subtitle" : "(361) 24, 36", "name" : "Carretera Madrid 11", "title" : "Carretera Madrid 11", "lon" : -0.9220929365569778, "lines" : [ "24", "36" ], "lat" : 41.64749400209217, "pole" : 361 }
{ "_id" : { "$oid" : "5336deb54514acde61d9ae9c" }, "subtitle" : "(1169) 24, 36", "name" : "Carretera Madrid/Inocencio Jiménez", "title" : "Carretera Madrid/Inocencio Jiménez", "lon" : -0.9211421725142921, "lines" : [ "24", "36" ], "lat" : 41.64831647165867, "pole" : 1169 }
{ "_id" : { "$oid" : "5336deb54514acde61d9ae9d" }, "subtitle" : "(360) 24, 36", "name" : "Carretera Madrid 3", "title" : "Carretera Madrid 3", "lon" : -0.9200277416747029, "lines" : [ "24", "36" ], "lat" : 41.64891647486216, "pole" : 360 }
{ "_id" : { "$oid" : "5336deb54514acde61d9ae9e" }, "subtitle" : "(628) 24", "name" : "Paseo de Calanda 20", "title" : "Paseo de Calanda 20", "lon" : -0.9042492399895884, "lines" : [ "24" ], "lat" : 41.65302130725824, "pole" : 628 }
{ "_id" : { "$oid" : "5336deb54514acde61d9ae9f" }, "subtitle" : "(3038) 24", "name" : "Paseo de Calanda 50", "title" : "Paseo de Calanda 50", "lon" : -0.9032457874301412, "lines" : [ "24" ], "lat" : 41.65087522288371, "pole" : 3038 }
{ "_id" : { "$oid" : "5336deb54514acde61d9aea0" }, "subtitle" : "(463) 24", "name" : "Franco y López 57", "title" : "Franco y López 57", "lon" : -0.9018195789633294, "lines" : [ "24" ], "lat" : 41.6479028636635, "pole" : 463 }
{ "_id" : { "$oid" : "5336deb54514acde61d9aea1" }, "subtitle" : "(329) 24", "name" : "Corona de Aragón 51", "title" : "Corona de Aragón 51", "lon" : -0.8994085847652425, "lines" : [ "24" ], "lat" : 41.64481709298509, "pole" : 329 }
{ "_id" : { "$oid" : "5336deb54514acde61d9aea2" }, "subtitle" : "(328) 24", "name" : "Corona de Aragón 33", "title" : "Corona de Aragón 33", "lon" : -0.8967300803842941, "lines" : [ "24" ], "lat" : 41.64336613130168, "pole" : 328 }
{ "_id" : { "$oid" : "5336deb54514acde61d9aea3" }, "subtitle" : "(768) 24", "name" : "San Juan de la Cruz 2", "title" : "San Juan de la Cruz 2", "lon" : -0.8935537444339378, "lines" : [ "24" ], "lat" : 41.64166258562483, "pole" : 768 }
{ "_id" : { "$oid" : "5336deb54514acde61d9aea4" }, "subtitle" : "(769) 24", "name" : "San Juan de la Cruz 26", "title" : "San Juan de la Cruz 26", "lon" : -0.8913285335549052, "lines" : [ "24" ], "lat" : 41.64102006683631, "pole" : 769 }
{ "_id" : { "$oid" : "5336deb54514acde61d9aea5" }, "subtitle" : "(542) 24", "name" : "Juan Pablo Bonet 23", "title" : "Juan Pablo Bonet 23", "lon" : -0.8886338772854829, "lines" : [ "24" ], "lat" : 41.6405154794533, "pole" : 542 }
{ "_id" : { "$oid" : "5336deb54514acde61d9aea6" }, "subtitle" : "(291) 24", "name" : "Camino de Las Torres 105", "title" : "Camino de Las Torres 105", "lon" : -0.8855678754043709, "lines" : [ "24" ], "lat" : 41.64011848184266, "pole" : 291 }
{ "_id" : { "$oid" : "5336deb54514acde61d9aea7" }, "subtitle" : "(257) 24", "name" : "Tenor Fleta 124", "title" : "Tenor Fleta 124", "lon" : -0.8750638296121319, "lines" : [ "24" ], "lat" : 41.63650920944996, "pole" : 257 }
{ "_id" : { "$oid" : "5336deb54514acde61d9aea8" }, "subtitle" : "(705) 24", "name" : "Camino Puente Virrey", "title" : "Camino Puente Virrey", "lon" : -0.8737372511275018, "lines" : [ "24" ], "lat" : 41.63953790439257, "pole" : 705 }
{ "_id" : { "$oid" : "5336deb54514acde61d9aea9" }, "subtitle" : "(634) 25, 30, 32, 51, N6", "name" : "Paseo de la Constitución 33", "title" : "Paseo de la Constitución 33", "lon" : -0.8801728596112925, "lines" : [ "25", "30", "32", "51", "N6" ], "lat" : 41.64763421610126, "pole" : 634 }
{ "_id" : { "$oid" : "5336deb54514acde61d9aeaa" }, "subtitle" : "(632) 25, 30, 32, 51, N6", "name" : "Paseo de la Constitución 11", "title" : "Paseo de la Constitución 11", "lon" : -0.8836723203256946, "lines" : [ "25", "30", "32", "51", "N6" ], "lat" : 41.64801482272774, "pole" : 632 }
{ "_id" : { "$oid" : "5336deb54514acde61d9aeab" }, "subtitle" : "(100) 25, 51, N6", "name" : "Cesáreo Alierta 117", "title" : "Cesáreo Alierta 117", "lon" : -0.8673486076609223, "lines" : [ "25", "51", "N6" ], "lat" : 41.63736319746241, "pole" : 100 }
{ "_id" : { "$oid" : "5336deb54514acde61d9aeac" }, "subtitle" : "(99) 25, 51, N6", "name" : "Cesáreo Alierta 95", "title" : "Cesáreo Alierta 95", "lon" : -0.8700506903875044, "lines" : [ "25", "51", "N6" ], "lat" : 41.63872680590829, "pole" : 99 }
{ "_id" : { "$oid" : "5336deb54514acde61d9aead" }, "subtitle" : "(101) 25, 51, N6", "name" : "Cesáreo Alierta/San José", "title" : "Cesáreo Alierta/San José", "lon" : -0.8724778539770219, "lines" : [ "25", "51", "N6" ], "lat" : 41.63993093768872, "pole" : 101 }
{ "_id" : { "$oid" : "5336deb54514acde61d9aeae" }, "subtitle" : "(98) 25, 51, N6", "name" : "Cesáreo Alierta 55", "title" : "Cesáreo Alierta 55", "lon" : -0.8741593592870335, "lines" : [ "25", "51", "N6" ], "lat" : 41.64097123236644, "pole" : 98 }
{ "_id" : { "$oid" : "5336deb54514acde61d9aeaf" }, "subtitle" : "(97) 25, 51, N6", "name" : "Cesáreo Alierta 27", "title" : "Cesáreo Alierta 27", "lon" : -0.8759419396335592, "lines" : [ "25", "51", "N6" ], "lat" : 41.6432780939689, "pole" : 97 }
{ "_id" : { "$oid" : "5336deb54514acde61d9aeb0" }, "subtitle" : "(96) 25, 51, N6", "name" : "Cesáreo Alierta 11", "title" : "Cesáreo Alierta 11", "lon" : -0.8777466949403264, "lines" : [ "25", "51", "N6" ], "lat" : 41.64552413916655, "pole" : 96 }
{ "_id" : { "$oid" : "5336deb54514acde61d9aeb1" }, "subtitle" : "(26) 25, N6", "name" : "Autonomía de Aragón", "title" : "Autonomía de Aragón", "lon" : -0.8250986693425016, "lines" : [ "25", "N6" ], "lat" : 41.60534028163284, "pole" : 26 }
{ "_id" : { "$oid" : "5336deb54514acde61d9aeb2" }, "subtitle" : "(352) 25, N6", "name" : "Ramírez Orellano 82", "title" : "Ramírez Orellano 82", "lon" : -0.8269017760703398, "lines" : [ "25", "N6" ], "lat" : 41.60494672517135, "pole" : 352 }
{ "_id" : { "$oid" : "5336deb54514acde61d9aeb3" }, "subtitle" : "(350) 25, N6", "name" : "Carretera Castellón/Walthon", "title" : "Carretera Castellón/Walthon", "lon" : -0.8340880311516476, "lines" : [ "25", "N6" ], "lat" : 41.61051220380627, "pole" : 350 }
{ "_id" : { "$oid" : "5336deb54514acde61d9aeb4" }, "subtitle" : "(356) 25, N6", "name" : "Carretera Castellón/San Valero", "title" : "Carretera Castellón/San Valero", "lon" : -0.8425085280825098, "lines" : [ "25", "N6" ], "lat" : 41.61877777487123, "pole" : 356 }
{ "_id" : { "$oid" : "5336deb54514acde61d9aeb5" }, "subtitle" : "(349) 25, N6", "name" : "Carretera Castellón/Cementerio", "title" : "Carretera Castellón/Cementerio", "lon" : -0.8534052357901457, "lines" : [ "25", "N6" ], "lat" : 41.62855964664989, "pole" : 349 }
{ "_id" : { "$oid" : "5336deb54514acde61d9aeb6" }, "subtitle" : "(599) 25, 38, N6", "name" : "Miguel Servet 199", "title" : "Miguel Servet 199", "lon" : -0.85974074202046, "lines" : [ "25", "38", "N6" ], "lat" : 41.63275960559392, "pole" : 599 }
{ "_id" : { "$oid" : "5336deb54514acde61d9aeb7" }, "subtitle" : "(3018) 25, 38, N6", "name" : "Cesáreo Alierta/Tercer cinturón", "title" : "Cesáreo Alierta/Tercer cinturón", "lon" : -0.863515957230248, "lines" : [ "25", "38", "N6" ], "lat" : 41.63501776028813, "pole" : 3018 }
{ "_id" : { "$oid" : "5336deb54514acde61d9aeb8" }, "subtitle" : "(278) 25, N6", "name" : "14 de Septiembre 29", "title" : "14 de Septiembre 29", "lon" : -0.8240760573665284, "lines" : [ "25", "N6" ], "lat" : 41.60445028481812, "pole" : 278 }
{ "_id" : { "$oid" : "5336deb54514acde61d9aeb9" }, "subtitle" : "(104) 25, 51, N6", "name" : "Cesáreo Alierta 22", "title" : "Cesáreo Alierta 22", "lon" : -0.8780472918212762, "lines" : [ "25", "51", "N6" ], "lat" : 41.64522430560506, "pole" : 104 }
{ "_id" : { "$oid" : "5336deb54514acde61d9aeba" }, "subtitle" : "(3028) 25, 51, N6", "name" : "Cesáreo Alierta", "title" : "Cesáreo Alierta", "lon" : -0.8766515390580903, "lines" : [ "25", "51", "N6" ], "lat" : 41.64341072432626, "pole" : 3028 }
{ "_id" : { "$oid" : "5336deb54514acde61d9aebb" }, "subtitle" : "(106) 25, 51, N6", "name" : "Cesáreo Alierta 44/San José", "title" : "Cesáreo Alierta 44/San José", "lon" : -0.874401243399933, "lines" : [ "25", "51", "N6" ], "lat" : 41.64053211698886, "pole" : 106 }
{ "_id" : { "$oid" : "5336deb54514acde61d9aebc" }, "subtitle" : "(107) 25, 51", "name" : "Cesáreo Alierta 72", "title" : "Cesáreo Alierta 72", "lon" : -0.8726519561562427, "lines" : [ "25", "51" ], "lat" : 41.63962543616419, "pole" : 107 }
{ "_id" : { "$oid" : "5336deb54514acde61d9aebd" }, "subtitle" : "(108) 25, 51", "name" : "Cesáreo Alierta 94", "title" : "Cesáreo Alierta 94", "lon" : -0.8704060060014029, "lines" : [ "25", "51" ], "lat" : 41.63857471478757, "pole" : 108 }
{ "_id" : { "$oid" : "5336deb54514acde61d9aebe" }, "subtitle" : "(633) 25, 40, 51, N6", "name" : "Paseo de la Constitución 16", "title" : "Paseo de la Constitución 16", "lon" : -0.8817680231020122, "lines" : [ "25", "40", "51", "N6" ], "lat" : 41.64779458466063, "pole" : 633 }
{ "_id" : { "$oid" : "5336deb54514acde61d9aebf" }, "subtitle" : "(1030) 25", "name" : "Cesáreo Alierta/La Granja", "title" : "Cesáreo Alierta/La Granja", "lon" : -0.8682243097473283, "lines" : [ "25" ], "lat" : 41.63714780524671, "pole" : 1030 }
{ "_id" : { "$oid" : "5336deb54514acde61d9aec0" }, "subtitle" : "(110) 25", "name" : "Cesáreo Alierta/Pabellón", "title" : "Cesáreo Alierta/Pabellón", "lon" : -0.8640883658518862, "lines" : [ "25" ], "lat" : 41.63510856186051, "pole" : 110 }
{ "_id" : { "$oid" : "5336deb54514acde61d9aec1" }, "subtitle" : "(1122) 25, 38, N6", "name" : "Miguel Servet/Camino de En medio", "title" : "Miguel Servet/Camino de En medio", "lon" : -0.8595892678185393, "lines" : [ "25", "38", "N6" ], "lat" : 41.63234792666513, "pole" : 1122 }
{ "_id" : { "$oid" : "5336deb54514acde61d9aec2" }, "subtitle" : "(353) 25, N6", "name" : "Carretera Castellón", "title" : "Carretera Castellón", "lon" : -0.8534842716911748, "lines" : [ "25", "N6" ], "lat" : 41.62844449921452, "pole" : 353 }
{ "_id" : { "$oid" : "5336deb54514acde61d9aec3" }, "subtitle" : "(354) 25, N6", "name" : "Carretera Castellón/Gasolinera", "title" : "Carretera Castellón/Gasolinera", "lon" : -0.8463476127871269, "lines" : [ "25", "N6" ], "lat" : 41.62322859955662, "pole" : 354 }
{ "_id" : { "$oid" : "5336deb54514acde61d9aec4" }, "subtitle" : "(357) 25, N6", "name" : "Carretera Castellón/San Valero", "title" : "Carretera Castellón/San Valero", "lon" : -0.8439698428623734, "lines" : [ "25", "N6" ], "lat" : 41.61798440869534, "pole" : 357 }
{ "_id" : { "$oid" : "5336deb54514acde61d9aec5" }, "subtitle" : "(722) 25, N6", "name" : "Carretera Castellón/MAZ", "title" : "Carretera Castellón/MAZ", "lon" : -0.8411469646031966, "lines" : [ "25", "N6" ], "lat" : 41.61586011307608, "pole" : 722 }
{ "_id" : { "$oid" : "5336deb54514acde61d9aec6" }, "subtitle" : "(643) 25, N6", "name" : "Carretera Castellón/Rotonda", "title" : "Carretera Castellón/Rotonda", "lon" : -0.8286391405065595, "lines" : [ "25", "N6" ], "lat" : 41.60579554772424, "pole" : 643 }
{ "_id" : { "$oid" : "5336deb54514acde61d9aec7" }, "subtitle" : "(56) 21, 28, 32, 39, 50, N1", "name" : "Avenida Cataluña 74", "title" : "Avenida Cataluña 74", "lon" : -0.8658090502159654, "lines" : [ "21", "28", "32", "39", "50", "N1" ], "lat" : 41.6617307894753, "pole" : 56 }
{ "_id" : { "$oid" : "5336deb54514acde61d9aec8" }, "subtitle" : "(666) 21, 38", "name" : "Independencia 25", "title" : "Independencia 25", "lon" : -0.8825969013638937, "lines" : [ "21", "38" ], "lat" : 41.65026544650973, "pole" : 666 }
{ "_id" : { "$oid" : "5336deb54514acde61d9aec9" }, "subtitle" : "(333) 21", "name" : "Coso 54", "title" : "Coso 54", "lon" : -0.8800812797416121, "lines" : [ "21" ], "lat" : 41.65187147092083, "pole" : 333 }
{ "_id" : { "$oid" : "5336deb54514acde61d9aeca" }, "subtitle" : "(1092) 21, 51, N6", "name" : "Pamplona 5", "title" : "Pamplona 5", "lon" : -0.8868331640731405, "lines" : [ "21", "51", "N6" ], "lat" : 41.64839546833431, "pole" : 1092 }
{ "_id" : { "$oid" : "5336deb54514acde61d9aecb" }, "subtitle" : "(682) 22, 34, 51, N2", "name" : "Pamplona 12", "title" : "Pamplona 12", "lon" : -0.8870368923448397, "lines" : [ "22", "34", "51", "N2" ], "lat" : 41.64928271034356, "pole" : 682 }
{ "_id" : { "$oid" : "5336deb54514acde61d9aecc" }, "subtitle" : "(134) 22, 41, 53", "name" : "Gómez Laguna 20", "title" : "Gómez Laguna 20", "lon" : -0.9100870016256403, "lines" : [ "22", "41", "53" ], "lat" : 41.64193020949834, "pole" : 134 }
{ "_id" : { "$oid" : "5336deb54514acde61d9aecd" }, "subtitle" : "(137) 22, 41, 53", "name" : "Gómez Laguna 48", "title" : "Gómez Laguna 48", "lon" : -0.9136237779112776, "lines" : [ "22", "41", "53" ], "lat" : 41.64080056715882, "pole" : 137 }
{ "_id" : { "$oid" : "5336deb54514acde61d9aece" }, "subtitle" : "(852) 22, CI2, 42", "name" : "Vía Univérsitas 13", "title" : "Vía Univérsitas 13", "lon" : -0.9073899173630497, "lines" : [ "22", "CI2", "42" ], "lat" : 41.64558408120083, "pole" : 852 }
{ "_id" : { "$oid" : "5336deb54514acde61d9aecf" }, "subtitle" : "(660) 22", "name" : "Echegaray y Caballero/Puente del Pilar", "title" : "Echegaray y Caballero/Puente del Pilar", "lon" : -0.8706646644000995, "lines" : [ "22" ], "lat" : 41.65420203781738, "pole" : 660 }
{ "_id" : { "$oid" : "5336deb54514acde61d9aed0" }, "subtitle" : "(3051) 22, 53", "name" : "Vía Hispanidad/frente 59", "title" : "Vía Hispanidad/frente 59", "lon" : -0.9148299985719707, "lines" : [ "22", "53" ], "lat" : 41.6417063167417, "pole" : 3051 }
{ "_id" : { "$oid" : "5336deb54514acde61d9aed1" }, "subtitle" : "(822) 22, 53", "name" : "Vía Hispanidad 64", "title" : "Vía Hispanidad 64", "lon" : -0.9162962301759799, "lines" : [ "22", "53" ], "lat" : 41.64504871675643, "pole" : 822 }
{ "_id" : { "$oid" : "5336deb54514acde61d9aed2" }, "subtitle" : "(826) 22, 53", "name" : "Vía Hispanidad 80", "title" : "Vía Hispanidad 80", "lon" : -0.9168804955913189, "lines" : [ "22", "53" ], "lat" : 41.64643829065328, "pole" : 826 }
{ "_id" : { "$oid" : "5336deb54514acde61d9aed3" }, "subtitle" : "(829) 22, 53", "name" : "Vía Hispanidad 100", "title" : "Vía Hispanidad 100", "lon" : -0.9179840833524116, "lines" : [ "22", "53" ], "lat" : 41.64884182736595, "pole" : 829 }
{ "_id" : { "$oid" : "5336deb54514acde61d9aed4" }, "subtitle" : "(754) 22, 24", "name" : "Rodrigo Rebolledo 33", "title" : "Rodrigo Rebolledo 33", "lon" : -0.8624630244115943, "lines" : [ "22", "24" ], "lat" : 41.64602830979305, "pole" : 754 }
{ "_id" : { "$oid" : "5336deb54514acde61d9aed5" }, "subtitle" : "(753) 22, 24, 30, N5", "name" : "Rodrigo Rebolledo 7", "title" : "Rodrigo Rebolledo 7", "lon" : -0.8649566305686649, "lines" : [ "22", "24", "30", "N5" ], "lat" : 41.64629675189375, "pole" : 753 }
{ "_id" : { "$oid" : "5336deb54514acde61d9aed6" }, "subtitle" : "(532) 22, 30", "name" : "Jorge Cocci 23", "title" : "Jorge Cocci 23", "lon" : -0.8691015157892705, "lines" : [ "22", "30" ], "lat" : 41.64663179608117, "pole" : 532 }
{ "_id" : { "$oid" : "5336deb54514acde61d9aed7" }, "subtitle" : "(3031) 22", "name" : "Jorge Cocci 3", "title" : "Jorge Cocci 3", "lon" : -0.8705774371603199, "lines" : [ "22" ], "lat" : 41.64881019872406, "pole" : 3031 }
{ "_id" : { "$oid" : "5336deb54514acde61d9aed8" }, "subtitle" : "(3032) 22", "name" : "Asalto/Edificio Trovador", "title" : "Asalto/Edificio Trovador", "lon" : -0.8697996571950265, "lines" : [ "22" ], "lat" : 41.65132876814792, "pole" : 3032 }
{ "_id" : { "$oid" : "5336deb54514acde61d9aed9" }, "subtitle" : "(51) 22, 31", "name" : "Anselmo Clavé/Estación", "title" : "Anselmo Clavé/Estación", "lon" : -0.8937549025745927, "lines" : [ "22", "31" ], "lat" : 41.65095136952318, "pole" : 51 }
{ "_id" : { "$oid" : "5336deb54514acde61d9aeda" }, "subtitle" : "(52) 22, 31", "name" : "Anselmo Clavé/Santander", "title" : "Anselmo Clavé/Santander", "lon" : -0.8938197846482842, "lines" : [ "22", "31" ], "lat" : 41.64916614281641, "pole" : 52 }
{ "_id" : { "$oid" : "5336deb54514acde61d9aedb" }, "subtitle" : "(795) 22, N6", "name" : "Santander 34", "title" : "Santander 34", "lon" : -0.8971321501882871, "lines" : [ "22", "N6" ], "lat" : 41.64922681243031, "pole" : 795 }
{ "_id" : { "$oid" : "5336deb54514acde61d9aedc" }, "subtitle" : "(435) 22, N6", "name" : "Duquesa Villahermosa 10", "title" : "Duquesa Villahermosa 10", "lon" : -0.9009521329242115, "lines" : [ "22", "N6" ], "lat" : 41.64878399000027, "pole" : 435 }
{ "_id" : { "$oid" : "5336deb54514acde61d9aedd" }, "subtitle" : "(436) 22, N6", "name" : "Duquesa Villahermosa 42", "title" : "Duquesa Villahermosa 42", "lon" : -0.9034131927340138, "lines" : [ "22", "N6" ], "lat" : 41.64794768514962, "pole" : 436 }
{ "_id" : { "$oid" : "5336deb54514acde61d9aede" }, "subtitle" : "(442) 22, N6", "name" : "Duquesa Villahermosa/Univérsitas", "title" : "Duquesa Villahermosa/Univérsitas", "lon" : -0.9066026563406929, "lines" : [ "22", "N6" ], "lat" : 41.64687583799537, "pole" : 442 }
{ "_id" : { "$oid" : "5336deb54514acde61d9aedf" }, "subtitle" : "(133) 22, N4", "name" : "Gómez Laguna 6", "title" : "Gómez Laguna 6", "lon" : -0.9067703091287306, "lines" : [ "22", "N4" ], "lat" : 41.64298735007216, "pole" : 133 }
{ "_id" : { "$oid" : "5336deb54514acde61d9aee0" }, "subtitle" : "(3044) 22", "name" : "Vía Hispanidad/Frente Oliver", "title" : "Vía Hispanidad/Frente Oliver", "lon" : -0.919275210695865, "lines" : [ "22" ], "lat" : 41.65189272752036, "pole" : 3044 }
{ "_id" : { "$oid" : "5336deb54514acde61d9aee1" }, "subtitle" : "(3045) 22", "name" : "Vía Hispanidad/Cruce Bombarda", "title" : "Vía Hispanidad/Cruce Bombarda", "lon" : -0.9203174423437918, "lines" : [ "22" ], "lat" : 41.65458269931114, "pole" : 3045 }
{ "_id" : { "$oid" : "5336deb54514acde61d9aee2" }, "subtitle" : "(750) 22, 32", "name" : "Ramón José Sender", "title" : "Ramón José Sender", "lon" : -0.9188807587805978, "lines" : [ "22", "32" ], "lat" : 41.65627144332951, "pole" : 750 }
{ "_id" : { "$oid" : "5336deb54514acde61d9aee3" }, "subtitle" : "(857) 22, 32", "name" : "Vicente Blanco", "title" : "Vicente Blanco", "lon" : -0.9197705058266393, "lines" : [ "22", "32" ], "lat" : 41.65834089261775, "pole" : 857 }
{ "_id" : { "$oid" : "5336deb54514acde61d9aee4" }, "subtitle" : "(755) 22", "name" : "Rodrigo Rebolledo", "title" : "Rodrigo Rebolledo", "lon" : -0.8586209513735343, "lines" : [ "22" ], "lat" : 41.64564915704049, "pole" : 755 }
{ "_id" : { "$oid" : "5336deb54514acde61d9aee5" }, "subtitle" : "(710) 22, 35, 40, N7", "name" : "Plaza de Aragón/Canfranc", "title" : "Plaza de Aragón/Canfranc", "lon" : -0.8848995421030994, "lines" : [ "22", "35", "40", "N7" ], "lat" : 41.64847693610286, "pole" : 710 }
{ "_id" : { "$oid" : "5336deb54514acde61d9aee6" }, "subtitle" : "(720) 22, 35, 40, N7", "name" : "Plaza de España", "title" : "Plaza de España", "lon" : -0.8807434685663551, "lines" : [ "22", "35", "40", "N7" ], "lat" : 41.65203942198174, "pole" : 720 }
{ "_id" : { "$oid" : "5336deb54514acde61d9aee7" }, "subtitle" : "(707) 22, 30, 35, N5", "name" : "Plaza de Aragón", "title" : "Plaza de Aragón", "lon" : -0.8844688500473197, "lines" : [ "22", "30", "35", "N5" ], "lat" : 41.64837746537231, "pole" : 707 }
{ "_id" : { "$oid" : "5336deb54514acde61d9aee8" }, "subtitle" : "(719) 22, 30, 35, N5", "name" : "Plaza de España", "title" : "Plaza de España", "lon" : -0.8806698932166886, "lines" : [ "22", "30", "35", "N5" ], "lat" : 41.65193831088204, "pole" : 719 }
{ "_id" : { "$oid" : "5336deb54514acde61d9aee9" }, "subtitle" : "(139) 22, 41, 53", "name" : "Gómez Laguna/Telefónica", "title" : "Gómez Laguna/Telefónica", "lon" : -0.9135627072645944, "lines" : [ "22", "41", "53" ], "lat" : 41.64052817078434, "pole" : 139 }
{ "_id" : { "$oid" : "5336deb54514acde61d9aeea" }, "subtitle" : "(135) 22, 41", "name" : "Gómez Laguna 25", "title" : "Gómez Laguna 25", "lon" : -0.9101355954665176, "lines" : [ "22", "41" ], "lat" : 41.64163017855058, "pole" : 135 }
{ "_id" : { "$oid" : "5336deb54514acde61d9aeeb" }, "subtitle" : "(239) 22, 35, 41", "name" : "San Juan Bosco/Hospital", "title" : "San Juan Bosco/Hospital", "lon" : -0.9038021934433427, "lines" : [ "22", "35", "41" ], "lat" : 41.64370862388881, "pole" : 239 }
{ "_id" : { "$oid" : "5336deb54514acde61d9aeec" }, "subtitle" : "(827) 22, 53", "name" : "Vía Hispanidad 83", "title" : "Vía Hispanidad 83", "lon" : -0.9179466454101664, "lines" : [ "22", "53" ], "lat" : 41.64809744131038, "pole" : 827 }
{ "_id" : { "$oid" : "5336deb54514acde61d9aeed" }, "subtitle" : "(825) 22, 53", "name" : "Vía Hispanidad 77", "title" : "Vía Hispanidad 77", "lon" : -0.9171931813270925, "lines" : [ "22", "53" ], "lat" : 41.64639551863189, "pole" : 825 }
{ "_id" : { "$oid" : "5336deb54514acde61d9aeee" }, "subtitle" : "(824) 22, 53", "name" : "Vía Hispanidad 73", "title" : "Vía Hispanidad 73", "lon" : -0.9165701863691842, "lines" : [ "22", "53" ], "lat" : 41.64509285802478, "pole" : 824 }
{ "_id" : { "$oid" : "5336deb54514acde61d9aeef" }, "subtitle" : "(3050) 22, 53", "name" : "Vía Hispanidad 59", "title" : "Vía Hispanidad 59", "lon" : -0.9151813876537033, "lines" : [ "22", "53" ], "lat" : 41.64169764274381, "pole" : 3050 }
{ "_id" : { "$oid" : "5336deb54514acde61d9aef0" }, "subtitle" : "(271) 22", "name" : "Biarritz 14", "title" : "Biarritz 14", "lon" : -0.920124839407288, "lines" : [ "22" ], "lat" : 41.65574292210147, "pole" : 271 }
{ "_id" : { "$oid" : "5336deb54514acde61d9aef1" }, "subtitle" : "(828) 22", "name" : "Vía Hispanidad 99", "title" : "Vía Hispanidad 99", "lon" : -0.9195206433273605, "lines" : [ "22" ], "lat" : 41.65206652199227, "pole" : 828 }
{ "_id" : { "$oid" : "5336deb54514acde61d9aef2" }, "subtitle" : "(136) 22", "name" : "Gómez Laguna 15", "title" : "Gómez Laguna 15", "lon" : -0.9079821963468755, "lines" : [ "22" ], "lat" : 41.64236007325065, "pole" : 136 }
{ "_id" : { "$oid" : "5336deb54514acde61d9aef3" }, "subtitle" : "(236) 22, 35, 38", "name" : "San Juan Bosco 7", "title" : "San Juan Bosco 7", "lon" : -0.9009495112387321, "lines" : [ "22", "35", "38" ], "lat" : 41.64459674047601, "pole" : 236 }
{ "_id" : { "$oid" : "5336deb54514acde61d9aef4" }, "subtitle" : "(149) 28, N7", "name" : "Avenida Peñaflor", "title" : "Avenida Peñaflor", "lon" : -0.796442500556054, "lines" : [ "28", "N7" ], "lat" : 41.75919139603449, "pole" : 149 }
{ "_id" : { "$oid" : "5336deb54514acde61d9aef5" }, "subtitle" : "(1012) 28, N7", "name" : "Avenida Peñaflor  98", "title" : "Avenida Peñaflor  98", "lon" : -0.7953912110745361, "lines" : [ "28", "N7" ], "lat" : 41.7607694631258, "pole" : 1012 }
{ "_id" : { "$oid" : "5336deb54514acde61d9aef6" }, "subtitle" : "(546) 28, N7", "name" : "Carretera Peñaflor", "title" : "Carretera Peñaflor", "lon" : -0.7948333405173061, "lines" : [ "28", "N7" ], "lat" : 41.76244596341332, "pole" : 546 }
{ "_id" : { "$oid" : "5336deb54514acde61d9aef7" }, "subtitle" : "(1237) 28", "name" : "Coso 118", "title" : "Coso 118", "lon" : -0.8722635840635967, "lines" : [ "28" ], "lat" : 41.65461498925675, "pole" : 1237 }
{ "_id" : { "$oid" : "5336deb54514acde61d9aef8" }, "lat" : 41.67007578937378, "lon" : -0.8261001167943334, "pole" : 1238, "name" : "(1238) SANTA NUNILA Líneas: 28", "title" : "(1238) SANTA NUNILA Líneas: 28" }
{ "_id" : { "$oid" : "5336deb54514acde61d9aef9" }, "lat" : 41.66966664096694, "lon" : -0.8229361554501949, "pole" : 1239, "name" : "(1239) DIECISEIS DE JULIO / COLEGIO ESPARTIDERO Líneas: 28", "title" : "(1239) DIECISEIS DE JULIO / COLEGIO ESPARTIDERO Líneas: 28" }
{ "_id" : { "$oid" : "5336deb54514acde61d9aefa" }, "lat" : 41.6719547399778, "lon" : -0.8294109051393525, "pole" : 1240, "name" : "(1240) AVENIDA DE LOS ESTUDIANTES / PARQUE Líneas: 28", "title" : "(1240) AVENIDA DE LOS ESTUDIANTES / PARQUE Líneas: 28" }
{ "_id" : { "$oid" : "5336deb54514acde61d9aefb" }, "subtitle" : "(63) 28, 32, 44, N7", "name" : "Avenida Cataluña 115", "title" : "Avenida Cataluña 115", "lon" : -0.8593891787034985, "lines" : [ "28", "32", "44", "N7" ], "lat" : 41.66458819160665, "pole" : 63 }
{ "_id" : { "$oid" : "5336deb54514acde61d9aefc" }, "subtitle" : "(61) 28, 32, 44, N7", "name" : "Avenida Cataluña 103", "title" : "Avenida Cataluña 103", "lon" : -0.8609264468135209, "lines" : [ "28", "32", "44", "N7" ], "lat" : 41.66392930991561, "pole" : 61 }
{ "_id" : { "$oid" : "5336deb54514acde61d9aefd" }, "subtitle" : "(1003) 28, 32, 39, 44, 50, N7", "name" : "Plaza Mozart", "title" : "Plaza Mozart", "lon" : -0.8641221237844908, "lines" : [ "28", "32", "39", "44", "50", "N7" ], "lat" : 41.6626540595678, "pole" : 1003 }
{ "_id" : { "$oid" : "5336deb54514acde61d9aefe" }, "subtitle" : "(240) 28, 32, N7", "name" : "Santa Isabel 9", "title" : "Santa Isabel 9", "lon" : -0.8393799948022516, "lines" : [ "28", "32", "N7" ], "lat" : 41.67009680574834, "pole" : 240 }
{ "_id" : { "$oid" : "5336deb54514acde61d9aeff" }, "subtitle" : "(3522) 28, 32, N7", "name" : "AvenidaCataluña/Río Aguasvivas", "title" : "AvenidaCataluña/Río Aguasvivas", "lon" : -0.8463971708318255, "lines" : [ "28", "32", "N7" ], "lat" : 41.67002728295619, "pole" : 3522 }
{ "_id" : { "$oid" : "5336deb54514acde61d9af00" }, "subtitle" : "(73) 28, 32, N7", "name" : "Avenida Cataluña 253", "title" : "Avenida Cataluña 253", "lon" : -0.8487915079916879, "lines" : [ "28", "32", "N7" ], "lat" : 41.66902280362944, "pole" : 73 }
{ "_id" : { "$oid" : "5336deb54514acde61d9af01" }, "subtitle" : "(3523) 28, 32, N7", "name" : "Avenida Cataluña/Iglesia", "title" : "Avenida Cataluña/Iglesia", "lon" : -0.8512443374001535, "lines" : [ "28", "32", "N7" ], "lat" : 41.66802595915331, "pole" : 3523 }
{ "_id" : { "$oid" : "5336deb54514acde61d9af02" }, "subtitle" : "(69) 28, 32, N7", "name" : "Avenida Cataluña 165", "title" : "Avenida Cataluña 165", "lon" : -0.8543824326326971, "lines" : [ "28", "32", "N7" ], "lat" : 41.66667245801538, "pole" : 69 }
{ "_id" : { "$oid" : "5336deb54514acde61d9af03" }, "subtitle" : "(68) 28, 32, N7", "name" : "Avenida Cataluña 159", "title" : "Avenida Cataluña 159", "lon" : -0.8567590646452691, "lines" : [ "28", "32", "N7" ], "lat" : 41.66571147935649, "pole" : 68 }
{ "_id" : { "$oid" : "5336deb54514acde61d9af04" }, "subtitle" : "(78) 28, 35, 39, 50, N7", "name" : "Avenida Cataluña /Balcón de San Lázaro", "title" : "Avenida Cataluña /Balcón de San Lázaro", "lon" : -0.8741195294806159, "lines" : [ "28", "35", "39", "50", "N7" ], "lat" : 41.65840306994768, "pole" : 78 }
{ "_id" : { "$oid" : "5336deb54514acde61d9af05" }, "subtitle" : "(1099) 50", "name" : "Arquitecto La Figuera s/n", "title" : "Arquitecto La Figuera s/n", "lon" : -0.8789475353400387, "lines" : [ "50" ], "lat" : 41.66034998436226, "pole" : 1099 }
{ "_id" : { "$oid" : "5336deb54514acde61d9af06" }, "subtitle" : "(54) 28, 35, 39, 50, N7", "name" : "Avenida Cataluña 17", "title" : "Avenida Cataluña 17", "lon" : -0.8703395752039901, "lines" : [ "28", "35", "39", "50", "N7" ], "lat" : 41.65990491533085, "pole" : 54 }
{ "_id" : { "$oid" : "5336deb54514acde61d9af07" }, "subtitle" : "(659) 29", "name" : "Echegaray y Caballero/Hospedería", "title" : "Echegaray y Caballero/Hospedería", "lon" : -0.8793180206692482, "lines" : [ "29" ], "lat" : 41.65742904012534, "pole" : 659 }
{ "_id" : { "$oid" : "5336deb54514acde61d9af08" }, "subtitle" : "(654) 28", "name" : "Echegaray y Caballero 112", "title" : "Echegaray y Caballero 112", "lon" : -0.8750530595320887, "lines" : [ "28" ], "lat" : 41.65566127162975, "pole" : 654 }
{ "_id" : { "$oid" : "5336deb54514acde61d9af09" }, "subtitle" : "(1013) 28, N7", "name" : "Avenida Peñaflor 109", "title" : "Avenida Peñaflor 109", "lon" : -0.7953095027497105, "lines" : [ "28", "N7" ], "lat" : 41.76109672248758, "pole" : 1013 }
{ "_id" : { "$oid" : "5336deb54514acde61d9af0a" }, "subtitle" : "(427) 28, N7", "name" : "Avenida Peñaflor  79", "title" : "Avenida Peñaflor  79", "lon" : -0.7960234082452631, "lines" : [ "28", "N7" ], "lat" : 41.75999095769556, "pole" : 427 }
{ "_id" : { "$oid" : "5336deb54514acde61d9af0b" }, "subtitle" : "(462) 28, N7", "name" : "Cuartel Guardia Civil", "title" : "Cuartel Guardia Civil", "lon" : -0.7968726891859597, "lines" : [ "28", "N7" ], "lat" : 41.75875364186664, "pole" : 462 }
{ "_id" : { "$oid" : "5336deb54514acde61d9af0c" }, "subtitle" : "(419) 28, N7", "name" : "Carretera Peñaflor", "title" : "Carretera Peñaflor", "lon" : -0.7977523501899515, "lines" : [ "28", "N7" ], "lat" : 41.75678078140562, "pole" : 419 }
{ "_id" : { "$oid" : "5336deb54514acde61d9af0d" }, "subtitle" : "(424) 28, N7", "name" : "Carretera Peñaflor", "title" : "Carretera Peñaflor", "lon" : -0.8045412951131456, "lines" : [ "28", "N7" ], "lat" : 41.74513065285568, "pole" : 424 }
{ "_id" : { "$oid" : "5336deb54514acde61d9af0e" }, "subtitle" : "(405) 28, N7", "name" : "Carretera Peñaflor", "title" : "Carretera Peñaflor", "lon" : -0.806368055994605, "lines" : [ "28", "N7" ], "lat" : 41.7420140018616, "pole" : 405 }
{ "_id" : { "$oid" : "5336deb54514acde61d9af0f" }, "subtitle" : "(418) 28, N7", "name" : "Carretera Peñaflor", "title" : "Carretera Peñaflor", "lon" : -0.8087307021797768, "lines" : [ "28", "N7" ], "lat" : 41.73509890289385, "pole" : 418 }
{ "_id" : { "$oid" : "5336deb54514acde61d9af10" }, "subtitle" : "(410) 28, N7", "name" : "Carretera Peñaflor", "title" : "Carretera Peñaflor", "lon" : -0.8089447586562165, "lines" : [ "28", "N7" ], "lat" : 41.73298681561445, "pole" : 410 }
{ "_id" : { "$oid" : "5336deb54514acde61d9af11" }, "subtitle" : "(403) 28, N7", "name" : "Carretera Peñaflor", "title" : "Carretera Peñaflor", "lon" : -0.8088960389171518, "lines" : [ "28", "N7" ], "lat" : 41.73028935902203, "pole" : 403 }
{ "_id" : { "$oid" : "5336deb54514acde61d9af12" }, "subtitle" : "(408) 28, N7", "name" : "Carretera Peñaflor", "title" : "Carretera Peñaflor", "lon" : -0.8107225867812843, "lines" : [ "28", "N7" ], "lat" : 41.72354181164392, "pole" : 408 }
{ "_id" : { "$oid" : "5336deb54514acde61d9af13" }, "subtitle" : "(402) 28, N7", "name" : "Carretera Peñaflor 174", "title" : "Carretera Peñaflor 174", "lon" : -0.8101815518703708, "lines" : [ "28", "N7" ], "lat" : 41.71967312406749, "pole" : 402 }
{ "_id" : { "$oid" : "5336deb54514acde61d9af14" }, "subtitle" : "(407) 28, N7", "name" : "Carretera Peñaflor", "title" : "Carretera Peñaflor", "lon" : -0.8101468849891147, "lines" : [ "28", "N7" ], "lat" : 41.71811829928995, "pole" : 407 }
{ "_id" : { "$oid" : "5336deb54514acde61d9af15" }, "subtitle" : "(420) 28, N7", "name" : "Carretera Peñaflor", "title" : "Carretera Peñaflor", "lon" : -0.8108659940160728, "lines" : [ "28", "N7" ], "lat" : 41.71597211421222, "pole" : 420 }
{ "_id" : { "$oid" : "5336deb54514acde61d9af16" }, "subtitle" : "(415) 28, N7", "name" : "Carretera Peñaflor", "title" : "Carretera Peñaflor", "lon" : -0.8113941554848793, "lines" : [ "28", "N7" ], "lat" : 41.71363944236355, "pole" : 415 }
{ "_id" : { "$oid" : "5336deb54514acde61d9af17" }, "subtitle" : "(400) 28, N7", "name" : "Carretera Peñaflor 170", "title" : "Carretera Peñaflor 170", "lon" : -0.812750632292052, "lines" : [ "28", "N7" ], "lat" : 41.71067605167116, "pole" : 400 }
{ "_id" : { "$oid" : "5336deb54514acde61d9af18" }, "subtitle" : "(398) 28, N7", "name" : "Carretera Peñaflor 169", "title" : "Carretera Peñaflor 169", "lon" : -0.8139576458586726, "lines" : [ "28", "N7" ], "lat" : 41.70758888602694, "pole" : 398 }
{ "_id" : { "$oid" : "5336deb54514acde61d9af19" }, "subtitle" : "(414) 28, N7", "name" : "Carretera Peñaflor 166", "title" : "Carretera Peñaflor 166", "lon" : -0.8143739377608908, "lines" : [ "28", "N7" ], "lat" : 41.70585200925515, "pole" : 414 }
{ "_id" : { "$oid" : "5336deb54514acde61d9af1a" }, "subtitle" : "(395) 28, N7", "name" : "Carretera Peñaflor 162", "title" : "Carretera Peñaflor 162", "lon" : -0.8150545930310987, "lines" : [ "28", "N7" ], "lat" : 41.70273630965319, "pole" : 395 }
{ "_id" : { "$oid" : "5336deb54514acde61d9af1b" }, "subtitle" : "(417) 28, N7", "name" : "Carretera Peñaflor", "title" : "Carretera Peñaflor", "lon" : -0.8152567510394149, "lines" : [ "28", "N7" ], "lat" : 41.70005108225759, "pole" : 417 }
{ "_id" : { "$oid" : "5336deb54514acde61d9af1c" }, "subtitle" : "(383) 28, N7", "name" : "Carretera Montañana 625", "title" : "Carretera Montañana 625", "lon" : -0.8172656068345985, "lines" : [ "28", "N7" ], "lat" : 41.69584546222183, "pole" : 383 }
{ "_id" : { "$oid" : "5336deb54514acde61d9af1d" }, "subtitle" : "(382) 28, N7", "name" : "Carretera Montañana 587", "title" : "Carretera Montañana 587", "lon" : -0.8187701194678072, "lines" : [ "28", "N7" ], "lat" : 41.69510935638257, "pole" : 382 }
{ "_id" : { "$oid" : "5336deb54514acde61d9af1e" }, "subtitle" : "(379) 28, N7", "name" : "Carretera Montañana 541", "title" : "Carretera Montañana 541", "lon" : -0.8209146829726367, "lines" : [ "28", "N7" ], "lat" : 41.69377560025358, "pole" : 379 }
{ "_id" : { "$oid" : "5336deb54514acde61d9af1f" }, "subtitle" : "(378) 28, N7", "name" : "Carretera Montañana 489", "title" : "Carretera Montañana 489", "lon" : -0.8226710177427767, "lines" : [ "28", "N7" ], "lat" : 41.69279520079721, "pole" : 378 }
{ "_id" : { "$oid" : "5336deb54514acde61d9af20" }, "subtitle" : "(377) 28, N7", "name" : "Carretera Montañana 419", "title" : "Carretera Montañana 419", "lon" : -0.8252031640997204, "lines" : [ "28", "N7" ], "lat" : 41.69121541965125, "pole" : 377 }
{ "_id" : { "$oid" : "5336deb54514acde61d9af21" }, "subtitle" : "(375) 28, N7", "name" : "Carretera Montañana 381", "title" : "Carretera Montañana 381", "lon" : -0.8265184533658396, "lines" : [ "28", "N7" ], "lat" : 41.68990635382887, "pole" : 375 }
{ "_id" : { "$oid" : "5336deb54514acde61d9af22" }, "subtitle" : "(3034) 35", "name" : "San Juan de La Peña/Marqués la Cadena", "title" : "San Juan de La Peña/Marqués la Cadena", "lon" : -0.8713787520526721, "lines" : [ "35" ], "lat" : 41.66590776566919, "pole" : 3034 }
{ "_id" : { "$oid" : "5336deb54514acde61d9af23" }, "subtitle" : "(3502) 35, 36", "name" : "San Juan de la Peña 94", "title" : "San Juan de la Peña 94", "lon" : -0.8713036966058124, "lines" : [ "35", "36" ], "lat" : 41.6680214411192, "pole" : 3502 }
{ "_id" : { "$oid" : "5336deb54514acde61d9af24" }, "subtitle" : "(783) 35", "name" : "San Juan de la Peña 127", "title" : "San Juan de la Peña 127", "lon" : -0.871194041313083, "lines" : [ "35" ], "lat" : 41.67075261237461, "pole" : 783 }
{ "_id" : { "$oid" : "5336deb54514acde61d9af25" }, "subtitle" : "(3503) 35", "name" : "San Juan de la Peña/Camin Los molinos", "title" : "San Juan de la Peña/Camin Los molinos", "lon" : -0.871147874650546, "lines" : [ "35" ], "lat" : 41.67291318690265, "pole" : 3503 }
{ "_id" : { "$oid" : "5336deb54514acde61d9af26" }, "subtitle" : "(779) 35", "name" : "San Juan de la Peña 182", "title" : "San Juan de la Peña 182", "lon" : -0.8710492986817272, "lines" : [ "35" ], "lat" : 41.67573954885041, "pole" : 779 }
{ "_id" : { "$oid" : "5336deb54514acde61d9af27" }, "subtitle" : "(3504) 35", "name" : "San Juan de la Peña/Alcalde Caballero", "title" : "San Juan de la Peña/Alcalde Caballero", "lon" : -0.8709340922639821, "lines" : [ "35" ], "lat" : 41.67699833591938, "pole" : 3504 }
{ "_id" : { "$oid" : "5336deb54514acde61d9af28" }, "subtitle" : "(189) 36, 42, 51, 52", "name" : "Avenida Navarra/Centro Cívico", "title" : "Avenida Navarra/Centro Cívico", "lon" : -0.9067720932353682, "lines" : [ "36", "42", "51", "52" ], "lat" : 41.65557975108627, "pole" : 189 }
{ "_id" : { "$oid" : "5336deb54514acde61d9af29" }, "subtitle" : "(3042) 36, CI2, 42", "name" : "Rioja/Parque Castillo Palomar", "title" : "Rioja/Parque Castillo Palomar", "lon" : -0.9096725214035232, "lines" : [ "36", "CI2", "42" ], "lat" : 41.65459180608133, "pole" : 3042 }
{ "_id" : { "$oid" : "5336deb54514acde61d9af2a" }, "subtitle" : "(183) 36, 51, 52", "name" : "Avenida Navarra 12", "title" : "Avenida Navarra 12", "lon" : -0.9019531664923799, "lines" : [ "36", "51", "52" ], "lat" : 41.65493546841694, "pole" : 183 }
{ "_id" : { "$oid" : "5336deb54514acde61d9af2b" }, "subtitle" : "(184) 36, 51, 52", "name" : "Avenida Navarra 30", "title" : "Avenida Navarra 30", "lon" : -0.9041279794845033, "lines" : [ "36", "51", "52" ], "lat" : 41.6552215312029, "pole" : 184 }
{ "_id" : { "$oid" : "5336deb54514acde61d9af2c" }, "subtitle" : "(3535) 36", "name" : "Tulipán 79", "title" : "Tulipán 79", "lon" : -0.9334836785198427, "lines" : [ "36" ], "lat" : 41.63820950615037, "pole" : 3535 }
{ "_id" : { "$oid" : "5336deb54514acde61d9af2d" }, "subtitle" : "(607) 36", "name" : "Monte Perdido/María Domínguez Remón", "title" : "Monte Perdido/María Domínguez Remón", "lon" : -0.8728140269745636, "lines" : [ "36" ], "lat" : 41.67315750951988, "pole" : 607 }
{ "_id" : { "$oid" : "5336deb54514acde61d9af2e" }, "subtitle" : "(15) 36", "name" : "Camino Juslibol", "title" : "Camino Juslibol", "lon" : -0.8746101648376293, "lines" : [ "36" ], "lat" : 41.67388379741118, "pole" : 15 }
{ "_id" : { "$oid" : "5336deb54514acde61d9af2f" }, "subtitle" : "(3047) 36, CI1, 42", "name" : "Rioja 22", "title" : "Rioja 22", "lon" : -0.9097020539155056, "lines" : [ "36", "CI1", "42" ], "lat" : 41.65397465098143, "pole" : 3047 }
{ "_id" : { "$oid" : "5336deb54514acde61d9af30" }, "subtitle" : "(186) 36, 42, 51, 52", "name" : "Avenida Navarra 71", "title" : "Avenida Navarra 71", "lon" : -0.9073698880409707, "lines" : [ "36", "42", "51", "52" ], "lat" : 41.65536615115818, "pole" : 186 }
{ "_id" : { "$oid" : "5336deb54514acde61d9af31" }, "subtitle" : "(575) 36", "name" : "Mariano Baselga 15", "title" : "Mariano Baselga 15", "lon" : -0.8777822597007831, "lines" : [ "36" ], "lat" : 41.66116785649727, "pole" : 575 }
{ "_id" : { "$oid" : "5336deb54514acde61d9af32" }, "subtitle" : "(796) 36", "name" : "Sixto Celorrio 58", "title" : "Sixto Celorrio 58", "lon" : -0.8757397048192448, "lines" : [ "36" ], "lat" : 41.66137734122716, "pole" : 796 }
{ "_id" : { "$oid" : "5336deb54514acde61d9af33" }, "subtitle" : "(185) 36, 51, 52", "name" : "Avenida Navarra 33", "title" : "Avenida Navarra 33", "lon" : -0.9040656870023711, "lines" : [ "36", "51", "52" ], "lat" : 41.65492231069728, "pole" : 185 }
{ "_id" : { "$oid" : "5336deb54514acde61d9af34" }, "subtitle" : "(182) 36, 51, 52", "name" : "Avenida Navarra 1", "title" : "Avenida Navarra 1", "lon" : -0.9016188830357297, "lines" : [ "36", "51", "52" ], "lat" : 41.65463290615611, "pole" : 182 }
{ "_id" : { "$oid" : "5336deb54514acde61d9af35" }, "subtitle" : "(3501) CI1, 36", "name" : "Valle de Broto 9", "title" : "Valle de Broto 9", "lon" : -0.8728657966647015, "lines" : [ "CI1", "36" ], "lat" : 41.66645426888635, "pole" : 3501 }
{ "_id" : { "$oid" : "5336deb54514acde61d9af36" }, "subtitle" : "(606) 36", "name" : "Monte Perdido/María Domínguez Remón", "title" : "Monte Perdido/María Domínguez Remón", "lon" : -0.872590535373539, "lines" : [ "36" ], "lat" : 41.6731616410525, "pole" : 606 }
{ "_id" : { "$oid" : "5336deb54514acde61d9af37" }, "subtitle" : "(1153) 36", "name" : "Brea de Aragón", "title" : "Brea de Aragón", "lon" : -0.9185090229979526, "lines" : [ "36" ], "lat" : 41.6519073276856, "pole" : 1153 }
{ "_id" : { "$oid" : "5336deb54514acde61d9af38" }, "subtitle" : "(1147) 36", "name" : "Julián Sanz Ibáñez 41", "title" : "Julián Sanz Ibáñez 41", "lon" : -0.9149744850021804, "lines" : [ "36" ], "lat" : 41.65182751886821, "pole" : 1147 }
{ "_id" : { "$oid" : "5336deb54514acde61d9af39" }, "subtitle" : "(1148) 36", "name" : "Julián Sanz Ibáñez 13", "title" : "Julián Sanz Ibáñez 13", "lon" : -0.9121508975058625, "lines" : [ "36" ], "lat" : 41.65245462373297, "pole" : 1148 }
{ "_id" : { "$oid" : "5336deb54514acde61d9af3a" }, "subtitle" : "(819) 36", "name" : "Valle de Oza/Parque", "title" : "Valle de Oza/Parque", "lon" : -0.8752184810616053, "lines" : [ "36" ], "lat" : 41.66395458830335, "pole" : 819 }
{ "_id" : { "$oid" : "5336deb54514acde61d9af3b" }, "subtitle" : "(818) 36", "name" : "Valle de Oza 19", "title" : "Valle de Oza 19", "lon" : -0.8749569139859583, "lines" : [ "36" ], "lat" : 41.66623560425993, "pole" : 818 }
{ "_id" : { "$oid" : "5336deb54514acde61d9af3c" }, "subtitle" : "(884) 36", "name" : "Monte Perdido 4", "title" : "Monte Perdido 4", "lon" : -0.872686119909154, "lines" : [ "36" ], "lat" : 41.6712215705691, "pole" : 884 }
{ "_id" : { "$oid" : "5336deb54514acde61d9af3d" }, "subtitle" : "(130) 36", "name" : "Avenida Pirineos/Macanaz", "title" : "Avenida Pirineos/Macanaz", "lon" : -0.8804352552301371, "lines" : [ "36" ], "lat" : 41.66001734643076, "pole" : 130 }
{ "_id" : { "$oid" : "5336deb54514acde61d9af3e" }, "subtitle" : "(584) 38, 39, 40", "name" : "Miguel Servet 13", "title" : "Miguel Servet 13", "lon" : -0.8741533225093353, "lines" : [ "38", "39", "40" ], "lat" : 41.64762451030288, "pole" : 584 }
{ "_id" : { "$oid" : "5336deb54514acde61d9af3f" }, "subtitle" : "(851) 38, CI1, 42", "name" : "Vía Univérsitas 10", "title" : "Vía Univérsitas 10", "lon" : -0.9068667682229113, "lines" : [ "38", "CI1", "42" ], "lat" : 41.6452618741086, "pole" : 851 }
{ "_id" : { "$oid" : "5336deb54514acde61d9af40" }, "subtitle" : "(605) 38", "name" : "Miguel Servet 147", "title" : "Miguel Servet 147", "lon" : -0.8634434285002949, "lines" : [ "38" ], "lat" : 41.63654590989722, "pole" : 605 }
{ "_id" : { "$oid" : "5336deb54514acde61d9af41" }, "subtitle" : "(594) 38", "name" : "Miguel Servet/ Padre Chaminade", "title" : "Miguel Servet/ Padre Chaminade", "lon" : -0.8649517391445842, "lines" : [ "38" ], "lat" : 41.6384212091245, "pole" : 594 }
{ "_id" : { "$oid" : "5336deb54514acde61d9af42" }, "subtitle" : "(591) 38", "name" : "Miguel Servet/ Francisco Quevedo", "title" : "Miguel Servet/ Francisco Quevedo", "lon" : -0.8668629371095706, "lines" : [ "38" ], "lat" : 41.64079213690471, "pole" : 591 }
{ "_id" : { "$oid" : "5336deb54514acde61d9af43" }, "subtitle" : "(589) 38", "name" : "Miguel Servet 61/Utrillas", "title" : "Miguel Servet 61/Utrillas", "lon" : -0.8691023168057453, "lines" : [ "38" ], "lat" : 41.643280147666, "pole" : 589 }
{ "_id" : { "$oid" : "5336deb54514acde61d9af44" }, "subtitle" : "(587) 38", "name" : "Miguel Servet 57", "title" : "Miguel Servet 57", "lon" : -0.8704746800263699, "lines" : [ "38" ], "lat" : 41.64476435038012, "pole" : 587 }
{ "_id" : { "$oid" : "5336deb54514acde61d9af45" }, "subtitle" : "(586) 38", "name" : "Miguel Servet 37", "title" : "Miguel Servet 37", "lon" : -0.8717926956369239, "lines" : [ "38" ], "lat" : 41.64592280473451, "pole" : 586 }
{ "_id" : { "$oid" : "5336deb54514acde61d9af46" }, "subtitle" : "(3049) 38, N6", "name" : "Villahermosa/Parque Delicias", "title" : "Villahermosa/Parque Delicias", "lon" : -0.9111327770797959, "lines" : [ "38", "N6" ], "lat" : 41.6453936050458, "pole" : 3049 }
{ "_id" : { "$oid" : "5336deb54514acde61d9af47" }, "subtitle" : "(440) 38, N6", "name" : "Duquesa Villahermosa s/n", "title" : "Duquesa Villahermosa s/n", "lon" : -0.9140279060336916, "lines" : [ "38", "N6" ], "lat" : 41.64450911771329, "pole" : 440 }
{ "_id" : { "$oid" : "5336deb54514acde61d9af48" }, "subtitle" : "(821) 38, N6", "name" : "Vía Hispanidad 64", "title" : "Vía Hispanidad 64", "lon" : -0.9158852643613117, "lines" : [ "38", "N6" ], "lat" : 41.64445845965479, "pole" : 821 }
{ "_id" : { "$oid" : "5336deb54514acde61d9af49" }, "subtitle" : "(823) 38", "name" : "Vía Hispanidad 73", "title" : "Vía Hispanidad 73", "lon" : -0.9163735043482124, "lines" : [ "38" ], "lat" : 41.64414041236329, "pole" : 823 }
{ "_id" : { "$oid" : "5336deb54514acde61d9af4a" }, "subtitle" : "(1165) 38", "name" : "Nuestra Señora de los Ángeles 20", "title" : "Nuestra Señora de los Ángeles 20", "lon" : -0.9192410909947729, "lines" : [ "38" ], "lat" : 41.643308288871, "pole" : 1165 }
{ "_id" : { "$oid" : "5336deb54514acde61d9af4b" }, "subtitle" : "(103) 38", "name" : "Escuela Pignatelli", "title" : "Escuela Pignatelli", "lon" : -0.9222068342128499, "lines" : [ "38" ], "lat" : 41.64375755127383, "pole" : 103 }
{ "_id" : { "$oid" : "5336deb54514acde61d9af4c" }, "subtitle" : "(8000) 38", "name" : "Cocheras Urbanos de Zaragoza", "title" : "Cocheras Urbanos de Zaragoza", "lon" : -0.8578417671491329, "lines" : [ "38" ], "lat" : 41.63258731901504, "pole" : 8000 }
{ "_id" : { "$oid" : "5336deb54514acde61d9af4d" }, "subtitle" : "(373) 28, N7", "name" : "Carretera Montañana 341", "title" : "Carretera Montañana 341", "lon" : -0.8277968881338582, "lines" : [ "28", "N7" ], "lat" : 41.68864157019811, "pole" : 373 }
{ "_id" : { "$oid" : "5336deb54514acde61d9af4e" }, "subtitle" : "(370) 28, N7", "name" : "Carretera Montañana 283", "title" : "Carretera Montañana 283", "lon" : -0.828767837398667, "lines" : [ "28", "N7" ], "lat" : 41.68643930640352, "pole" : 370 }
{ "_id" : { "$oid" : "5336deb54514acde61d9af4f" }, "subtitle" : "(387) 28, N7", "name" : "Carretera Montañana 254", "title" : "Carretera Montañana 254", "lon" : -0.8289080028424251, "lines" : [ "28", "N7" ], "lat" : 41.68457731506447, "pole" : 387 }
{ "_id" : { "$oid" : "5336deb54514acde61d9af50" }, "subtitle" : "(367) 28, N7", "name" : "Carretera Montañana 159", "title" : "Carretera Montañana 159", "lon" : -0.8294709987641424, "lines" : [ "28", "N7" ], "lat" : 41.68055532862929, "pole" : 367 }
{ "_id" : { "$oid" : "5336deb54514acde61d9af51" }, "subtitle" : "(390) 28, N7", "name" : "Carretera Montañana", "title" : "Carretera Montañana", "lon" : -0.8297096127442546, "lines" : [ "28", "N7" ], "lat" : 41.6770277506482, "pole" : 390 }
{ "_id" : { "$oid" : "5336deb54514acde61d9af52" }, "subtitle" : "(838) 28, N7", "name" : "Carretera Montañana", "title" : "Carretera Montañana", "lon" : -0.8322233137321134, "lines" : [ "28", "N7" ], "lat" : 41.67312760481552, "pole" : 838 }
{ "_id" : { "$oid" : "5336deb54514acde61d9af53" }, "subtitle" : "(392) 28, N7", "name" : "Carretera Montañana/Viveros", "title" : "Carretera Montañana/Viveros", "lon" : -0.8338197655180414, "lines" : [ "28", "N7" ], "lat" : 41.67280890595264, "pole" : 392 }
{ "_id" : { "$oid" : "5336deb54514acde61d9af54" }, "subtitle" : "(385) 28, N7", "name" : "Carretera Montañana/Balay", "title" : "Carretera Montañana/Balay", "lon" : -0.8384953777440396, "lines" : [ "28", "N7" ], "lat" : 41.6706035085372, "pole" : 385 }
{ "_id" : { "$oid" : "5336deb54514acde61d9af55" }, "lat" : 41.66990498538384, "lon" : -0.8268606651534336, "pole" : 1241, "name" : "(1241) SAN ANTÓN 73 Líneas: 28", "title" : "(1241) SAN ANTÓN 73 Líneas: 28" }
{ "_id" : { "$oid" : "5336deb54514acde61d9af56" }, "lat" : 41.67093440671073, "lon" : -0.8294857301695846, "pole" : 1242, "name" : "(1242) CALLE DE LA IGLESIA / PARQUE Líneas: 28", "title" : "(1242) CALLE DE LA IGLESIA / PARQUE Líneas: 28" }
{ "_id" : { "$oid" : "5336deb54514acde61d9af57" }, "subtitle" : "(218) 29, 44, 50, N7", "name" : "Salvador Allende/Somport", "title" : "Salvador Allende/Somport", "lon" : -0.8767771303254176, "lines" : [ "29", "44", "50", "N7" ], "lat" : 41.67491194810609, "pole" : 218 }
{ "_id" : { "$oid" : "5336deb54514acde61d9af58" }, "subtitle" : "(213) 29, 44, 50, N7", "name" : "Salvador Allende/Amylum", "title" : "Salvador Allende/Amylum", "lon" : -0.8739499841214221, "lines" : [ "29", "44", "50", "N7" ], "lat" : 41.67746624718353, "pole" : 213 }
{ "_id" : { "$oid" : "5336deb54514acde61d9af59" }, "subtitle" : "(214) 29, 44, 50, N7", "name" : "Salvador Allende/San Juan de La Peña", "title" : "Salvador Allende/San Juan de La Peña", "lon" : -0.8717255108989574, "lines" : [ "29", "44", "50", "N7" ], "lat" : 41.67748996849611, "pole" : 214 }
{ "_id" : { "$oid" : "5336deb54514acde61d9af5a" }, "subtitle" : "(346) 29, 50, N7", "name" : "Cristo Rey 23", "title" : "Cristo Rey 23", "lon" : -0.8659007830845312, "lines" : [ "29", "50", "N7" ], "lat" : 41.69295519049987, "pole" : 346 }
{ "_id" : { "$oid" : "5336deb54514acde61d9af5b" }, "subtitle" : "(347) 29, 50, N7", "name" : "Cristo Rey 77", "title" : "Cristo Rey 77", "lon" : -0.8637847526257867, "lines" : [ "29", "50", "N7" ], "lat" : 41.69107029619599, "pole" : 347 }
{ "_id" : { "$oid" : "5336deb54514acde61d9af5c" }, "subtitle" : "(284) CI1, 29", "name" : "Camino de Las Torres 10", "title" : "Camino de Las Torres 10", "lon" : -0.8739686795772227, "lines" : [ "CI1", "29" ], "lat" : 41.64663528869681, "pole" : 284 }
{ "_id" : { "$oid" : "5336deb54514acde61d9af5d" }, "subtitle" : "(816) 29, 50, CI1, N7", "name" : "Valle de Broto/Parque", "title" : "Valle de Broto/Parque", "lon" : -0.8791241265122937, "lines" : [ "29", "50", "CI1", "N7" ], "lat" : 41.66611679589739, "pole" : 816 }
{ "_id" : { "$oid" : "5336deb54514acde61d9af5e" }, "subtitle" : "(32) 29, 35, N7", "name" : "Av. Academia General Militar/Cristo Rey", "title" : "Av. Academia General Militar/Cristo Rey", "lon" : -0.870591217180116, "lines" : [ "29", "35", "N7" ], "lat" : 41.68735849848475, "pole" : 32 }
{ "_id" : { "$oid" : "5336deb54514acde61d9af5f" }, "subtitle" : "(126) 29, N7", "name" : "Avenida Pirineos", "title" : "Avenida Pirineos", "lon" : -0.8807399914610996, "lines" : [ "29", "N7" ], "lat" : 41.66178398572672, "pole" : 126 }
{ "_id" : { "$oid" : "5336deb54514acde61d9af60" }, "subtitle" : "(889) 29", "name" : "Concepción", "title" : "Concepción", "lon" : -0.8747350530990239, "lines" : [ "29" ], "lat" : 41.64764427843838, "pole" : 889 }
{ "_id" : { "$oid" : "5336deb54514acde61d9af61" }, "subtitle" : "(744) 29, 38, 39, 40", "name" : "Plaza San Miguel", "title" : "Plaza San Miguel", "lon" : -0.8759759224000563, "lines" : [ "29", "38", "39", "40" ], "lat" : 41.65006306377887, "pole" : 744 }
{ "_id" : { "$oid" : "5336deb54514acde61d9af62" }, "subtitle" : "(217) 29, N7", "name" : "Salvador Allende/Bomberos", "title" : "Salvador Allende/Bomberos", "lon" : -0.8764063019482895, "lines" : [ "29", "N7" ], "lat" : 41.66801934453721, "pole" : 217 }
{ "_id" : { "$oid" : "5336deb54514acde61d9af63" }, "subtitle" : "(3010) 29, N7", "name" : "Salvador Allende/Camino Juslibol", "title" : "Salvador Allende/Camino Juslibol", "lon" : -0.8767677619461867, "lines" : [ "29", "N7" ], "lat" : 41.67128496036138, "pole" : 3010 }
{ "_id" : { "$oid" : "5336deb54514acde61d9af64" }, "subtitle" : "(28) 29, 35, N7", "name" : "Av. Academia General Militar 2", "title" : "Av. Academia General Militar 2", "lon" : -0.8709073261428696, "lines" : [ "29", "35", "N7" ], "lat" : 41.6784594463767, "pole" : 28 }
{ "_id" : { "$oid" : "5336deb54514acde61d9af65" }, "subtitle" : "(29) 29, 35, N7", "name" : "Av. Academia General Militar 14", "title" : "Av. Academia General Militar 14", "lon" : -0.8708619111204605, "lines" : [ "29", "35", "N7" ], "lat" : 41.68173661162616, "pole" : 29 }
{ "_id" : { "$oid" : "5336deb54514acde61d9af66" }, "subtitle" : "(31) 29, 35, N7", "name" : "Av. Academia General Militar 54", "title" : "Av. Academia General Militar 54", "lon" : -0.8707296712195309, "lines" : [ "29", "35", "N7" ], "lat" : 41.68425381319815, "pole" : 31 }
{ "_id" : { "$oid" : "5336deb54514acde61d9af67" }, "subtitle" : "(34) 29, 35, N7", "name" : "Av. Academia General Militar/MAZ", "title" : "Av. Academia General Militar/MAZ", "lon" : -0.8706578572127965, "lines" : [ "29", "35", "N7" ], "lat" : 41.6857025330499, "pole" : 34 }
{ "_id" : { "$oid" : "5336deb54514acde61d9af68" }, "subtitle" : "(366) 29, N7", "name" : "Carretera Huesca/Pasarela", "title" : "Carretera Huesca/Pasarela", "lon" : -0.8698271021479154, "lines" : [ "29", "N7" ], "lat" : 41.69303645297288, "pole" : 366 }
{ "_id" : { "$oid" : "5336deb54514acde61d9af69" }, "subtitle" : "(527) 29, N7", "name" : "Jesús Y María 15", "title" : "Jesús Y María 15", "lon" : -0.8686903228193078, "lines" : [ "29", "N7" ], "lat" : 41.69476608054544, "pole" : 527 }
{ "_id" : { "$oid" : "5336deb54514acde61d9af6a" }, "subtitle" : "(219) 29", "name" : "Hospital Royo Villanova", "title" : "Hospital Royo Villanova", "lon" : -0.8622598356877944, "lines" : [ "29" ], "lat" : 41.69254068386877, "pole" : 219 }
{ "_id" : { "$oid" : "5336deb54514acde61d9af6b" }, "subtitle" : "(1246) 29", "name" : "Echegaray Caballero", "title" : "Echegaray Caballero", "lon" : -0.875417683714638, "lines" : [ "29" ], "lat" : 41.65597745791217, "pole" : 1246 }
{ "_id" : { "$oid" : "5336deb54514acde61d9af6c" }, "subtitle" : "(1247) 29, 36", "name" : "Echegaray Caballero/Mercado Central", "title" : "Echegaray Caballero/Mercado Central", "lon" : -0.881040958178965, "lines" : [ "29", "36" ], "lat" : 41.65789484383514, "pole" : 1247 }
{ "_id" : { "$oid" : "5336deb54514acde61d9af6d" }, "subtitle" : "(745) 29, 39", "name" : "Plaza San Miguel", "title" : "Plaza San Miguel", "lon" : -0.8762198377568694, "lines" : [ "29", "39" ], "lat" : 41.64995092892234, "pole" : 745 }
{ "_id" : { "$oid" : "5336deb54514acde61d9af6e" }, "subtitle" : "(585) 29, 38, 39, 40", "name" : "Miguel Servet 28", "title" : "Miguel Servet 28", "lon" : -0.8742474280121267, "lines" : [ "29", "38", "39", "40" ], "lat" : 41.64753740118909, "pole" : 585 }
{ "_id" : { "$oid" : "5336deb54514acde61d9af6f" }, "subtitle" : "(216) 29, 44, 50", "name" : "Salvador Allende 107", "title" : "Salvador Allende 107", "lon" : -0.8719816524242273, "lines" : [ "29", "44", "50" ], "lat" : 41.67773726536201, "pole" : 216 }
{ "_id" : { "$oid" : "5336deb54514acde61d9af70" }, "subtitle" : "(215) 29, 44, 50", "name" : "Salvador Allende 85", "title" : "Salvador Allende 85", "lon" : -0.8743139105925467, "lines" : [ "29", "44", "50" ], "lat" : 41.67762329533271, "pole" : 215 }
{ "_id" : { "$oid" : "5336deb54514acde61d9af71" }, "subtitle" : "(212) 29, 44, 50", "name" : "Salvador Allende 67", "title" : "Salvador Allende 67", "lon" : -0.8771487938397377, "lines" : [ "29", "44", "50" ], "lat" : 41.67483341043495, "pole" : 212 }
{ "_id" : { "$oid" : "5336deb54514acde61d9af72" }, "subtitle" : "(529) 29, 50", "name" : "Jesús Y María 89", "title" : "Jesús Y María 89", "lon" : -0.8644648818027807, "lines" : [ "29", "50" ], "lat" : 41.6931022070737, "pole" : 529 }
{ "_id" : { "$oid" : "5336deb54514acde61d9af73" }, "subtitle" : "(528) 29, 50", "name" : "Jesús Y María 62", "title" : "Jesús Y María 62", "lon" : -0.8660027657456444, "lines" : [ "29", "50" ], "lat" : 41.69372570864959, "pole" : 528 }
{ "_id" : { "$oid" : "5336deb54514acde61d9af74" }, "subtitle" : "(883) 29, 50, N7", "name" : "Camino Los Molinos 150", "title" : "Camino Los Molinos 150", "lon" : -0.8657497838805124, "lines" : [ "29", "50", "N7" ], "lat" : 41.68630834664099, "pole" : 883 }
{ "_id" : { "$oid" : "5336deb54514acde61d9af75" }, "subtitle" : "(898) 29, 50, N7", "name" : "Camino Los Molinos 165", "title" : "Camino Los Molinos 165", "lon" : -0.8666882375647448, "lines" : [ "29", "50", "N7" ], "lat" : 41.68385488777353, "pole" : 898 }
{ "_id" : { "$oid" : "5336deb54514acde61d9af76" }, "subtitle" : "(811) CI2, 29", "name" : "Valle de Broto 18", "title" : "Valle de Broto 18", "lon" : -0.8781324766487758, "lines" : [ "CI2", "29" ], "lat" : 41.66678474430869, "pole" : 811 }
{ "_id" : { "$oid" : "5336deb54514acde61d9af77" }, "subtitle" : "(131) 29", "name" : "Avenida Pirineos/Valle Broto", "title" : "Avenida Pirineos/Valle Broto", "lon" : -0.8807664122416834, "lines" : [ "29" ], "lat" : 41.66581149890011, "pole" : 131 }
{ "_id" : { "$oid" : "5336deb54514acde61d9af78" }, "subtitle" : "(124) 29", "name" : "Avenida Pirineos/Colegio Moliere", "title" : "Avenida Pirineos/Colegio Moliere", "lon" : -0.8810201298673028, "lines" : [ "29" ], "lat" : 41.66283963458309, "pole" : 124 }
{ "_id" : { "$oid" : "5336deb54514acde61d9af79" }, "subtitle" : "(433) 29, 35, 39, N7", "name" : "Don Jaime/Plaza La Seo", "title" : "Don Jaime/Plaza La Seo", "lon" : -0.8766157913233128, "lines" : [ "29", "35", "39", "N7" ], "lat" : 41.65546944570583, "pole" : 433 }
{ "_id" : { "$oid" : "5336deb54514acde61d9af7a" }, "subtitle" : "(365) 29", "name" : "Benito Ramazzini", "title" : "Benito Ramazzini", "lon" : -0.8686435903004395, "lines" : [ "29" ], "lat" : 41.68448263114511, "pole" : 365 }
{ "_id" : { "$oid" : "5336deb54514acde61d9af7b" }, "subtitle" : "(1203) 29", "name" : "Bernardo Ramazzini/MAZ", "title" : "Bernardo Ramazzini/MAZ", "lon" : -0.8701491105571891, "lines" : [ "29" ], "lat" : 41.68506264545284, "pole" : 1203 }
{ "_id" : { "$oid" : "5336deb54514acde61d9af7c" }, "subtitle" : "(36) 29, 35, N2", "name" : "Av. Academia General Militar/MAZ", "title" : "Av. Academia General Militar/MAZ", "lon" : -0.8709841613634951, "lines" : [ "29", "35", "N2" ], "lat" : 41.68511991554593, "pole" : 36 }
{ "_id" : { "$oid" : "5336deb54514acde61d9af7d" }, "subtitle" : "(33) 29, 35, N2", "name" : "Av. Academia General Militar 37", "title" : "Av. Academia General Militar 37", "lon" : -0.8710866367857079, "lines" : [ "29", "35", "N2" ], "lat" : 41.68201242918361, "pole" : 33 }
{ "_id" : { "$oid" : "5336deb54514acde61d9af7e" }, "subtitle" : "(3508) 29, 35, N2", "name" : "Avenida Academia General Militar  7", "title" : "Avenida Academia General Militar  7", "lon" : -0.8712168018632311, "lines" : [ "29", "35", "N2" ], "lat" : 41.67882980011347, "pole" : 3508 }
{ "_id" : { "$oid" : "5336deb54514acde61d9af7f" }, "subtitle" : "(3012) 29", "name" : "Salvador Allende 33", "title" : "Salvador Allende 33", "lon" : -0.8769730010516713, "lines" : [ "29" ], "lat" : 41.67072404396533, "pole" : 3012 }
{ "_id" : { "$oid" : "5336deb54514acde61d9af80" }, "subtitle" : "(210) 29", "name" : "Salvador Allende 5", "title" : "Salvador Allende 5", "lon" : -0.876738582144251, "lines" : [ "29" ], "lat" : 41.66757249128447, "pole" : 210 }
{ "_id" : { "$oid" : "5336deb54514acde61d9af81" }, "subtitle" : "(335) 29, 38", "name" : "Coso 62", "title" : "Coso 62", "lon" : -0.8796208478600603, "lines" : [ "29", "38" ], "lat" : 41.65168910788913, "pole" : 335 }
{ "_id" : { "$oid" : "5336deb54514acde61d9af82" }, "subtitle" : "(430) 30, 44, N5", "name" : "Doctor Iranzo 61", "title" : "Doctor Iranzo 61", "lon" : -0.8638229788563362, "lines" : [ "30", "44", "N5" ], "lat" : 41.6478831538726, "pole" : 430 }
{ "_id" : { "$oid" : "5336deb54514acde61d9af83" }, "subtitle" : "(20) 30", "name" : "Asalto 53", "title" : "Asalto 53", "lon" : -0.8719087712224552, "lines" : [ "30" ], "lat" : 41.64928470702783, "pole" : 20 }
{ "_id" : { "$oid" : "5336deb54514acde61d9af84" }, "subtitle" : "(740) 30, N5", "name" : "Plaza San Miguel", "title" : "Plaza San Miguel", "lon" : -0.8763591221415465, "lines" : [ "30", "N5" ], "lat" : 41.64996672065785, "pole" : 740 }
{ "_id" : { "$oid" : "5336deb54514acde61d9af85" }, "subtitle" : "(1074) 30", "name" : "Salvador Minguijón 64", "title" : "Salvador Minguijón 64", "lon" : -0.8609479087753725, "lines" : [ "30" ], "lat" : 41.65043791957827, "pole" : 1074 }
{ "_id" : { "$oid" : "5336deb54514acde61d9af86" }, "subtitle" : "(460) 30", "name" : "Doctor Iranzo/frente Azorín", "title" : "Doctor Iranzo/frente Azorín", "lon" : -0.8631403555691385, "lines" : [ "30" ], "lat" : 41.6509414690202, "pole" : 460 }
{ "_id" : { "$oid" : "5336deb54514acde61d9af87" }, "subtitle" : "(1248) 30, 32", "name" : "Paseo la Mina", "title" : "Paseo la Mina", "lon" : -0.87724628986174, "lines" : [ "30", "32" ], "lat" : 41.64858387864672, "pole" : 1248 }
{ "_id" : { "$oid" : "5336deb54514acde61d9af88" }, "subtitle" : "(472) 31, 42, C4, N5", "name" : "Gabriel Gombao 9", "title" : "Gabriel Gombao 9", "lon" : -0.8835385030031279, "lines" : [ "31", "42", "C4", "N5" ], "lat" : 41.62781758157362, "pole" : 472 }
{ "_id" : { "$oid" : "5336deb54514acde61d9af89" }, "subtitle" : "(47) 31, 42, C1, C4, N5", "name" : "América 83", "title" : "América 83", "lon" : -0.8861306340344967, "lines" : [ "31", "42", "C1", "C4", "N5" ], "lat" : 41.62866657133791, "pole" : 47 }
{ "_id" : { "$oid" : "5336deb54514acde61d9af8a" }, "subtitle" : "(44) 31, 33, 34, 39, 42, C1, C4, N5", "name" : "América 27", "title" : "América 27", "lon" : -0.8853965654853526, "lines" : [ "31", "33", "34", "39", "42", "C1", "C4", "N5" ], "lat" : 41.63124502458848, "pole" : 44 }
{ "_id" : { "$oid" : "5336deb54514acde61d9af8b" }, "subtitle" : "(695) 31, 33, 34, CI2, N5", "name" : "Sagasta 51", "title" : "Sagasta 51", "lon" : -0.8860675623381453, "lines" : [ "31", "33", "34", "CI2", "N5" ], "lat" : 41.6395501409491, "pole" : 695 }
{ "_id" : { "$oid" : "5336deb54514acde61d9af8c" }, "subtitle" : "(1043) C4, 31", "name" : "Puerto Venecia", "title" : "Puerto Venecia", "lon" : -0.8900555046675805, "lines" : [ "C4", "31" ], "lat" : 41.60872011889064, "pole" : 1043 }
{ "_id" : { "$oid" : "5336deb54514acde61d9af8d" }, "subtitle" : "(1171) C4, 31", "name" : "Teatro Malibrán", "title" : "Teatro Malibrán", "lon" : -0.8895562225925379, "lines" : [ "C4", "31" ], "lat" : 41.61011768887321, "pole" : 1171 }
{ "_id" : { "$oid" : "5336deb54514acde61d9af8e" }, "subtitle" : "(1179) C4, 31", "name" : "Avenida Isla de Murano", "title" : "Avenida Isla de Murano", "lon" : -0.8842418644612379, "lines" : [ "C4", "31" ], "lat" : 41.60965711988307, "pole" : 1179 }
{ "_id" : { "$oid" : "5336deb54514acde61d9af8f" }, "subtitle" : "(1163) 23, 31, C4, N5", "name" : "Prolongación Zafiro", "title" : "Prolongación Zafiro", "lon" : -0.8760517643254618, "lines" : [ "23", "31", "C4", "N5" ], "lat" : 41.61931411222887, "pole" : 1163 }
{ "_id" : { "$oid" : "5336deb54514acde61d9af90" }, "subtitle" : "(638) 31, 33, 34, 39, N5", "name" : "Paseo Cuellar/San Fernando", "title" : "Paseo Cuellar/San Fernando", "lon" : -0.8846242481632453, "lines" : [ "31", "33", "34", "39", "N5" ], "lat" : 41.63466602841109, "pole" : 638 }
{ "_id" : { "$oid" : "5336deb54514acde61d9af91" }, "subtitle" : "(637) 31, 33, 34, N5", "name" : "Paseo Cuellar 47", "title" : "Paseo Cuellar 47", "lon" : -0.8844439380923138, "lines" : [ "31", "33", "34", "N5" ], "lat" : 41.63607364557891, "pole" : 637 }
{ "_id" : { "$oid" : "5336deb54514acde61d9af92" }, "subtitle" : "(636) 31, 33, 34, N5", "name" : "Paseo Cuellar 29", "title" : "Paseo Cuellar 29", "lon" : -0.8841963112645433, "lines" : [ "31", "33", "34", "N5" ], "lat" : 41.63785416040224, "pole" : 636 }
{ "_id" : { "$oid" : "5336deb54514acde61d9af93" }, "subtitle" : "(141) 31", "name" : "Francisco de Goya 2", "title" : "Francisco de Goya 2", "lon" : -0.8867287301552289, "lines" : [ "31" ], "lat" : 41.64264167168208, "pole" : 141 }
{ "_id" : { "$oid" : "5336deb54514acde61d9af94" }, "subtitle" : "(144) 31", "name" : "Francisco de Goya 50", "title" : "Francisco de Goya 50", "lon" : -0.8910450768210417, "lines" : [ "31" ], "lat" : 41.6440758809368, "pole" : 144 }
{ "_id" : { "$oid" : "5336deb54514acde61d9af95" }, "subtitle" : "(146) 31", "name" : "Francisco de Goya 66", "title" : "Francisco de Goya 66", "lon" : -0.8930031777824908, "lines" : [ "31" ], "lat" : 41.64541636698586, "pole" : 146 }
{ "_id" : { "$oid" : "5336deb54514acde61d9af96" }, "subtitle" : "(148) 31", "name" : "Francisco de Goya 90", "title" : "Francisco de Goya 90", "lon" : -0.8935306120385997, "lines" : [ "31" ], "lat" : 41.64695463691786, "pole" : 148 }
{ "_id" : { "$oid" : "5336deb54514acde61d9af97" }, "subtitle" : "(1206) 23, N5", "name" : "Carlo Scarpa", "title" : "Carlo Scarpa", "lon" : -0.8713820138891271, "lines" : [ "23", "N5" ], "lat" : 41.61748829411303, "pole" : 1206 }
{ "_id" : { "$oid" : "5336deb54514acde61d9af98" }, "subtitle" : "(1207) 23, N5", "name" : "Avenida Puente de los suspiros", "title" : "Avenida Puente de los suspiros", "lon" : -0.8730485447174134, "lines" : [ "23", "N5" ], "lat" : 41.61842028892823, "pole" : 1207 }
{ "_id" : { "$oid" : "5336deb54514acde61d9af99" }, "subtitle" : "(1210) C4, 31", "name" : "Isla de Murano", "title" : "Isla de Murano", "lon" : -0.8877450488487862, "lines" : [ "C4", "31" ], "lat" : 41.61035601931956, "pole" : 1210 }
{ "_id" : { "$oid" : "5336deb54514acde61d9af9a" }, "lat" : 41.61642032409008, "lon" : -0.8723407459345711, "pole" : 1211, "name" : "(1211) CARLO SCARPA / CANNAREGIO Líneas: 31", "title" : "(1211) CARLO SCARPA / CANNAREGIO Líneas: 31" }
{ "_id" : { "$oid" : "5336deb54514acde61d9af9b" }, "subtitle" : "(1243) 31", "name" : "Paseo Maria Agustin/DGA", "title" : "Paseo Maria Agustin/DGA", "lon" : -0.8918408955108543, "lines" : [ "31" ], "lat" : 41.65277786060643, "pole" : 1243 }
{ "_id" : { "$oid" : "5336deb54514acde61d9af9c" }, "subtitle" : "(147) 31", "name" : "Francisco de Goya 83", "title" : "Francisco de Goya 83", "lon" : -0.89374145543049, "lines" : [ "31" ], "lat" : 41.64662987826657, "pole" : 147 }
{ "_id" : { "$oid" : "5336deb54514acde61d9af9d" }, "subtitle" : "(878) 31, 42", "name" : "Fray Julián Garcés 18", "title" : "Fray Julián Garcés 18", "lon" : -0.8866052305892105, "lines" : [ "31", "42" ], "lat" : 41.63091769588896, "pole" : 878 }
{ "_id" : { "$oid" : "5336deb54514acde61d9af9e" }, "subtitle" : "(464) 31, 33, 34, 39, C4, 42", "name" : "Fray Julián Garcés 54", "title" : "Fray Julián Garcés 54", "lon" : -0.8876393113467609, "lines" : [ "31", "33", "34", "39", "C4", "42" ], "lat" : 41.62912993299048, "pole" : 464 }
{ "_id" : { "$oid" : "5336deb54514acde61d9af9f" }, "subtitle" : "(860) 31, C4, 42", "name" : "Villa de Ansó", "title" : "Villa de Ansó", "lon" : -0.8866356728775936, "lines" : [ "31", "C4", "42" ], "lat" : 41.62795180148315, "pole" : 860 }
{ "_id" : { "$oid" : "5336deb54514acde61d9afa0" }, "subtitle" : "(550) 31, C4, 42", "name" : "Lasierra Purroy 104", "title" : "Lasierra Purroy 104", "lon" : -0.8833880210693571, "lines" : [ "31", "C4", "42" ], "lat" : 41.62694788402496, "pole" : 550 }
{ "_id" : { "$oid" : "5336deb54514acde61d9afa1" }, "subtitle" : "(556) 31, 42", "name" : "Lugo 134", "title" : "Lugo 134", "lon" : -0.8801367398623284, "lines" : [ "31", "42" ], "lat" : 41.6263862145175, "pole" : 556 }
{ "_id" : { "$oid" : "5336deb54514acde61d9afa2" }, "subtitle" : "(766) 31, 42", "name" : "San Antonio Padua", "title" : "San Antonio Padua", "lon" : -0.8768556287002166, "lines" : [ "31", "42" ], "lat" : 41.62656129101645, "pole" : 766 }
{ "_id" : { "$oid" : "5336deb54514acde61d9afa3" }, "subtitle" : "(1042) 23, 31, C4, N5", "name" : "Zafiro 40", "title" : "Zafiro 40", "lon" : -0.875950523726837, "lines" : [ "23", "31", "C4", "N5" ], "lat" : 41.62231937653765, "pole" : 1042 }
{ "_id" : { "$oid" : "5336deb54514acde61d9afa4" }, "subtitle" : "(1162) 23, 31, C4, N5", "name" : "Cuartel Policia Local", "title" : "Cuartel Policia Local", "lon" : -0.8768540740564049, "lines" : [ "23", "31", "C4", "N5" ], "lat" : 41.61837401316236, "pole" : 1162 }
{ "_id" : { "$oid" : "5336deb54514acde61d9afa5" },